$GPRMC,145919.053,A,3302.1581,S,06053.7735,W,0.79,89.98,160114,,,A*52
$GPRMC,145920.054,A,3302.1579,S,06053.7728,W,0.48,89.98,160114,,,A*56
$GPRMC,145921.056,A,3302.1570,S,06053.7717,W,0.43,89.98,160114,,,A*5B
$GPRMC,145922.054,A,3302.1566,S,06053.7729,W,0.63,92.28,160114,,,A*53
$GPRMC,145923.055,A,3302.1570,S,06053.7732,W,0.56,92.28,160114,,,A*58
$GPRMC,145924.062,A,3302.1549,S,06053.7712,W,0.58,118.95,160114,,,A*68
$GPRMC,145925.066,A,3302.1539,S,06053.7692,W,0.63,109.35,160114,,,A*61
$GPRMC,145926.070,A,3302.1530,S,06053.7678,W,0.47,109.35,160114,,,A*6E
$GPRMC,145927.075,A,3302.1521,S,06053.7664,W,0.34,109.35,160114,,,A*63
$GPRMC,145928.129,A,3302.1324,S,06053.7438,W,0.07,109.35,160114,,,A*6C
$GPRMC,145930.000,A,3302.1332,S,06053.7451,W,0.09,109.35,160114,,,A*69
$GPRMC,145931.000,A,3302.1325,S,06053.7456,W,0.07,109.35,160114,,,A*67
$GPRMC,145932.000,A,3302.1326,S,06053.7455,W,0.10,109.35,160114,,,A*62
$GPRMC,145933.000,A,3302.1325,S,06053.7458,W,0.16,109.35,160114,,,A*6B
$GPRMC,145934.000,A,3302.1331,S,06053.7472,W,0.34,109.35,160114,,,A*61
$GPRMC,145935.000,A,3302.1336,S,06053.7477,W,0.35,109.35,160114,,,A*63
$GPRMC,145936.000,A,3302.1330,S,06053.7482,W,0.38,109.35,160114,,,A*61
$GPRMC,145937.000,A,3302.1337,S,06053.7479,W,0.51,109.35,160114,,,A*6C
$GPRMC,145938.000,A,3302.1341,S,06053.7478,W,0.57,109.35,160114,,,A*65
$GPRMC,145939.000,A,3302.1345,S,06053.7478,W,0.59,158.43,160114,,,A*6B
$GPRMC,145940.000,A,3302.1348,S,06053.7479,W,0.59,174.24,160114,,,A*66
$GPRMC,145941.000,A,3302.1351,S,06053.7476,W,0.48,174.24,160114,,,A*60
$GPRMC,145942.000,A,3302.1354,S,06053.7474,W,0.53,174.24,160114,,,A*6E
$GPRMC,145943.000,A,3302.1356,S,06053.7471,W,0.42,174.24,160114,,,A*68
$GPRMC,145944.000,A,3302.1359,S,06053.7473,W,0.56,174.24,160114,,,A*67
$GPRMC,145945.000,A,3302.1359,S,06053.7473,W,0.37,174.24,160114,,,A*61
$GPRMC,145946.000,A,3302.1361,S,06053.7474,W,0.44,174.24,160114,,,A*6A
$GPRMC,145947.000,A,3302.1358,S,06053.7475,W,0.35,174.24,160114,,,A*66
$GPRMC,145948.000,A,3302.1357,S,06053.7477,W,0.21,174.24,160114,,,A*61
$GPRMC,145949.000,A,3302.1357,S,06053.7478,W,0.21,174.24,160114,,,A*6F
$GPRMC,145950.000,A,3302.1357,S,06053.7476,W,0.17,174.24,160114,,,A*6C
$GPRMC,145951.000,A,3302.1359,S,06053.7472,W,0.17,174.24,160114,,,A*67
$GPRMC,145952.000,A,3302.1359,S,06053.7472,W,0.16,174.24,160114,,,A*65
$GPRMC,145953.000,A,3302.1359,S,06053.7472,W,0.15,174.24,160114,,,A*67
$GPRMC,145954.000,A,3302.1359,S,06053.7473,W,0.07,174.24,160114,,,A*62
$GPRMC,145955.000,A,3302.1359,S,06053.7473,W,0.15,174.24,160114,,,A*60
$GPRMC,145956.000,A,3302.1359,S,06053.7472,W,0.22,174.24,160114,,,A*66
$GPRMC,145957.000,A,3302.1360,S,06053.7471,W,0.15,174.24,160114,,,A*6A
$GPRMC,145958.000,A,3302.1360,S,06053.7471,W,0.08,174.24,160114,,,A*69
$GPRMC,145959.000,A,3302.1360,S,06053.7471,W,0.19,174.24,160114,,,A*68
$GPRMC,150000.000,A,3302.1360,S,06053.7470,W,0.28,174.24,160114,,,A*6A
$GPRMC,150001.000,A,3302.1360,S,06053.7469,W,0.18,174.24,160114,,,A*60
$GPRMC,150002.000,A,3302.1360,S,06053.7469,W,0.08,174.24,160114,,,A*62
$GPRMC,150003.000,A,3302.1360,S,06053.7469,W,0.02,174.24,160114,,,A*69
$GPRMC,150004.000,A,3302.1360,S,06053.7469,W,0.15,174.24,160114,,,A*68
$GPRMC,150005.000,A,3302.1361,S,06053.7469,W,0.29,174.24,160114,,,A*67
$GPRMC,150006.000,A,3302.1362,S,06053.7469,W,0.34,174.24,160114,,,A*6B
$GPRMC,150007.000,A,3302.1362,S,06053.7469,W,0.30,174.24,160114,,,A*6E
$GPRMC,150008.000,A,3302.1363,S,06053.7469,W,0.24,174.24,160114,,,A*65
$GPRMC,150009.000,A,3302.1364,S,06053.7469,W,0.27,174.24,160114,,,A*60
$GPRMC,150010.000,A,3302.1365,S,06053.7470,W,0.19,174.24,160114,,,A*6C
$GPRMC,150011.000,A,3302.1365,S,06053.7470,W,0.23,174.24,160114,,,A*64
$GPRMC,150012.000,A,3302.1365,S,06053.7471,W,0.28,174.24,160114,,,A*6D
$GPRMC,150013.000,A,3302.1366,S,06053.7472,W,0.24,174.24,160114,,,A*60
$GPRMC,150014.000,A,3302.1366,S,06053.7472,W,0.20,174.24,160114,,,A*63
$GPRMC,150015.000,A,3302.1367,S,06053.7472,W,0.08,174.24,160114,,,A*69
$GPRMC,150016.000,A,3302.1367,S,06053.7472,W,0.06,174.24,160114,,,A*64
$GPRMC,150017.000,A,3302.1367,S,06053.7472,W,0.03,174.24,160114,,,A*60
$GPRMC,150018.000,A,3302.1367,S,06053.7472,W,0.07,174.24,160114,,,A*6B
$GPRMC,150019.000,A,3302.1367,S,06053.7472,W,0.07,174.24,160114,,,A*6A
$GPRMC,150020.000,A,3302.1367,S,06053.7472,W,0.17,174.24,160114,,,A*61
$GPRMC,150021.000,A,3302.1366,S,06053.7472,W,0.25,174.24,160114,,,A*60
$GPRMC,150022.000,A,3302.1366,S,06053.7473,W,0.31,174.24,160114,,,A*67
$GPRMC,150023.000,A,3302.1366,S,06053.7474,W,0.34,174.24,160114,,,A*64
$GPRMC,150024.000,A,3302.1365,S,06053.7475,W,0.28,174.24,160114,,,A*6C
$GPRMC,150025.000,A,3302.1365,S,06053.7476,W,0.31,174.24,160114,,,A*66
$GPRMC,150026.000,A,3302.1365,S,06053.7477,W,0.46,174.24,160114,,,A*64
$GPRMC,150027.000,A,3302.1364,S,06053.7478,W,0.35,174.24,160114,,,A*6F
$GPRMC,150028.000,A,3302.1363,S,06053.7479,W,0.40,174.24,160114,,,A*64
$GPRMC,150029.000,A,3302.1362,S,06053.7479,W,0.28,174.24,160114,,,A*6A
$GPRMC,150030.000,A,3302.1362,S,06053.7480,W,0.30,174.24,160114,,,A*6D
$GPRMC,150031.000,A,3302.1361,S,06053.7481,W,0.23,174.24,160114,,,A*6C
$GPRMC,150032.000,A,3302.1361,S,06053.7482,W,0.39,174.24,160114,,,A*67
$GPRMC,150033.000,A,3302.1361,S,06053.7483,W,0.29,174.24,160114,,,A*66
$GPRMC,150034.000,A,3302.1361,S,06053.7484,W,0.20,174.24,160114,,,A*6F
$GPRMC,150035.000,A,3302.1360,S,06053.7484,W,0.22,174.24,160114,,,A*6D
$GPRMC,150036.000,A,3302.1360,S,06053.7484,W,0.24,174.24,160114,,,A*68
$GPRMC,150037.000,A,3302.1359,S,06053.7485,W,0.23,174.24,160114,,,A*65
$GPRMC,150038.000,A,3302.1358,S,06053.7485,W,0.16,174.24,160114,,,A*6D
$GPRMC,150039.000,A,3302.1358,S,06053.7485,W,0.17,174.24,160114,,,A*6D
$GPRMC,150040.000,A,3302.1358,S,06053.7485,W,0.15,174.24,160114,,,A*61
$GPRMC,150041.000,A,3302.1357,S,06053.7486,W,0.18,174.24,160114,,,A*61
$GPRMC,150042.000,A,3302.1357,S,06053.7486,W,0.21,174.24,160114,,,A*68
$GPRMC,150043.000,A,3302.1357,S,06053.7487,W,0.21,174.24,160114,,,A*68
$GPRMC,150044.000,A,3302.1357,S,06053.7488,W,0.23,174.24,160114,,,A*62
$GPRMC,150045.000,A,3302.1358,S,06053.7488,W,0.13,174.24,160114,,,A*6F
$GPRMC,150046.000,A,3302.1358,S,06053.7489,W,0.13,174.24,160114,,,A*6D
$GPRMC,150047.000,A,3302.1357,S,06053.7489,W,0.22,174.24,160114,,,A*61
$GPRMC,150048.000,A,3302.1357,S,06053.7489,W,0.24,174.24,160114,,,A*68
$GPRMC,150049.000,A,3302.1357,S,06053.7490,W,0.30,174.24,160114,,,A*64
$GPRMC,150050.000,A,3302.1356,S,06053.7491,W,0.24,174.24,160114,,,A*69
$GPRMC,150051.000,A,3302.1355,S,06053.7491,W,0.22,174.24,160114,,,A*6D
$GPRMC,150052.000,A,3302.1355,S,06053.7490,W,0.22,174.24,160114,,,A*6F
$GPRMC,150053.000,A,3302.1355,S,06053.7490,W,0.06,174.24,160114,,,A*68
$GPRMC,150054.000,A,3302.1355,S,06053.7490,W,0.03,174.24,160114,,,A*6A
$GPRMC,150055.000,A,3302.1355,S,06053.7490,W,0.08,174.24,160114,,,A*60
$GPRMC,150056.000,A,3302.1355,S,06053.7490,W,0.18,174.24,160114,,,A*62
$GPRMC,150057.000,A,3302.1356,S,06053.7489,W,0.26,174.24,160114,,,A*65
$GPRMC,150058.000,A,3302.1356,S,06053.7490,W,0.23,174.24,160114,,,A*67
$GPRMC,150059.000,A,3302.1357,S,06053.7490,W,0.13,174.24,160114,,,A*64
$GPRMC,150100.000,A,3302.1358,S,06053.7490,W,0.13,174.24,160114,,,A*66
$GPRMC,150101.000,A,3302.1358,S,06053.7490,W,0.18,174.24,160114,,,A*6C
$GPRMC,150102.000,A,3302.1358,S,06053.7491,W,0.37,174.24,160114,,,A*63
$GPRMC,150103.000,A,3302.1357,S,06053.7492,W,0.55,174.24,160114,,,A*6A
$GPRMC,150104.000,A,3302.1356,S,06053.7493,W,0.54,174.24,160114,,,A*6C
$GPRMC,150105.000,A,3302.1356,S,06053.7495,W,0.48,174.24,160114,,,A*66
$GPRMC,150106.000,A,3302.1355,S,06053.7496,W,0.43,174.24,160114,,,A*6E
$GPRMC,150107.000,A,3302.1355,S,06053.7497,W,0.45,174.24,160114,,,A*68
$GPRMC,150108.000,A,3302.1354,S,06053.7499,W,0.53,174.24,160114,,,A*6F
$GPRMC,150109.000,A,3302.1354,S,06053.7500,W,0.86,299.04,160114,,,A*65
$GPRMC,150110.000,A,3302.1352,S,06053.7504,W,1.21,302.76,160114,,,A*65
$GPRMC,150111.000,A,3302.1350,S,06053.7506,W,1.27,304.68,160114,,,A*6B
$GPRMC,150112.000,A,3302.1349,S,06053.7505,W,1.02,305.21,160114,,,A*68
$GPRMC,150113.000,A,3302.1348,S,06053.7506,W,0.82,313.36,160114,,,A*63
$GPRMC,150114.000,A,3302.1348,S,06053.7508,W,0.77,310.66,160114,,,A*66
$GPRMC,150115.000,A,3302.1348,S,06053.7509,W,0.57,310.66,160114,,,A*64
$GPRMC,150116.000,A,3302.1349,S,06053.7510,W,0.59,299.28,160114,,,A*6A
$GPRMC,150117.000,A,3302.1350,S,06053.7511,W,0.81,289.21,160114,,,A*6F
$GPRMC,150118.000,A,3302.1353,S,06053.7510,W,0.75,285.23,160114,,,A*67
$GPRMC,150119.000,A,3302.1354,S,06053.7511,W,0.77,288.02,160114,,,A*6C
$GPRMC,150120.000,A,3302.1354,S,06053.7511,W,0.71,301.16,160114,,,A*65
$GPRMC,150121.000,A,3302.1356,S,06053.7511,W,0.51,301.16,160114,,,A*64
$GPRMC,150122.000,A,3302.1355,S,06053.7512,W,0.50,301.16,160114,,,A*66
$GPRMC,150123.000,A,3302.1356,S,06053.7512,W,0.47,301.16,160114,,,A*62
$GPRMC,150124.000,A,3302.1357,S,06053.7513,W,0.28,301.16,160114,,,A*6C
$GPRMC,150125.000,A,3302.1356,S,06053.7513,W,0.24,301.16,160114,,,A*60
$GPRMC,150126.000,A,3302.1356,S,06053.7514,W,0.22,301.16,160114,,,A*62
$GPRMC,150127.000,A,3302.1356,S,06053.7515,W,0.33,301.16,160114,,,A*62
$GPRMC,150128.000,A,3302.1355,S,06053.7515,W,0.41,301.16,160114,,,A*6B
$GPRMC,150129.000,A,3302.1354,S,06053.7516,W,0.41,301.16,160114,,,A*68
$GPRMC,150130.000,A,3302.1353,S,06053.7516,W,0.41,301.16,160114,,,A*67
$GPRMC,150131.000,A,3302.1352,S,06053.7516,W,0.50,301.16,160114,,,A*67
$GPRMC,150132.000,A,3302.1350,S,06053.7517,W,0.55,301.16,160114,,,A*62
$GPRMC,150133.000,A,3302.1349,S,06053.7517,W,0.71,331.73,160114,,,A*6D
$GPRMC,150134.000,A,3302.1348,S,06053.7519,W,0.75,316.63,160114,,,A*65
$GPRMC,150135.000,A,3302.1346,S,06053.7518,W,0.79,317.38,160114,,,A*68
$GPRMC,150136.000,A,3302.1343,S,06053.7519,W,0.84,318.65,160114,,,A*6A
$GPRMC,150137.000,A,3302.1342,S,06053.7518,W,0.82,335.37,160114,,,A*65
$GPRMC,150138.000,A,3302.1342,S,06053.7517,W,0.55,335.37,160114,,,A*6F
$GPRMC,150139.000,A,3302.1342,S,06053.7517,W,0.36,335.37,160114,,,A*6B
$GPRMC,150140.000,A,3302.1340,S,06053.7517,W,0.35,335.37,160114,,,A*64
$GPRMC,150141.000,A,3302.1342,S,06053.7516,W,0.17,335.37,160114,,,A*66
$GPRMC,150142.000,A,3302.1341,S,06053.7516,W,0.19,335.37,160114,,,A*68
$GPRMC,150143.000,A,3302.1341,S,06053.7517,W,0.07,335.37,160114,,,A*67
$GPRMC,150144.000,A,3302.1341,S,06053.7517,W,0.19,335.37,160114,,,A*6F
$GPRMC,150145.000,A,3302.1342,S,06053.7517,W,0.30,335.37,160114,,,A*66
$GPRMC,150146.000,A,3302.1342,S,06053.7516,W,0.25,335.37,160114,,,A*60
$GPRMC,150147.000,A,3302.1343,S,06053.7516,W,0.13,335.37,160114,,,A*65
$GPRMC,150148.000,A,3302.1343,S,06053.7516,W,0.06,335.37,160114,,,A*6E
$GPRMC,150149.000,A,3302.1344,S,06053.7516,W,0.07,335.37,160114,,,A*69
$GPRMC,150150.000,A,3302.1344,S,06053.7516,W,0.08,335.37,160114,,,A*6E
$GPRMC,150151.000,A,3302.1344,S,06053.7516,W,0.14,335.37,160114,,,A*62
$GPRMC,150152.000,A,3302.1343,S,06053.7516,W,0.17,335.37,160114,,,A*65
$GPRMC,150153.000,A,3302.1343,S,06053.7517,W,0.15,335.37,160114,,,A*67
$GPRMC,150154.000,A,3302.1343,S,06053.7517,W,0.26,335.37,160114,,,A*60
$GPRMC,150155.000,A,3302.1343,S,06053.7518,W,0.31,335.37,160114,,,A*68
$GPRMC,150156.000,A,3302.1343,S,06053.7519,W,0.25,335.37,160114,,,A*6F
$GPRMC,150157.000,A,3302.1344,S,06053.7519,W,0.36,335.37,160114,,,A*6B
$GPRMC,150158.000,A,3302.1344,S,06053.7520,W,0.44,335.37,160114,,,A*6B
$GPRMC,150159.000,A,3302.1345,S,06053.7522,W,0.50,335.37,160114,,,A*6C
$GPRMC,150200.000,A,3302.1346,S,06053.7523,W,0.51,335.37,160114,,,A*60
$GPRMC,150201.000,A,3302.1346,S,06053.7525,W,0.45,335.37,160114,,,A*62
$GPRMC,150202.000,A,3302.1346,S,06053.7526,W,0.18,335.37,160114,,,A*6A
$GPRMC,150203.000,A,3302.1346,S,06053.7526,W,0.17,335.37,160114,,,A*64
$GPRMC,150204.000,A,3302.1346,S,06053.7526,W,0.10,335.37,160114,,,A*64
$GPRMC,150205.000,A,3302.1346,S,06053.7526,W,0.11,335.37,160114,,,A*64
$GPRMC,150206.000,A,3302.1345,S,06053.7526,W,0.36,335.37,160114,,,A*61
$GPRMC,150207.000,A,3302.1345,S,06053.7525,W,0.34,335.37,160114,,,A*61
$GPRMC,150208.000,A,3302.1344,S,06053.7525,W,0.38,335.37,160114,,,A*63
$GPRMC,150209.000,A,3302.1343,S,06053.7525,W,0.41,335.37,160114,,,A*6B
$GPRMC,150210.000,A,3302.1342,S,06053.7525,W,0.38,335.37,160114,,,A*6C
$GPRMC,150211.000,A,3302.1341,S,06053.7525,W,0.30,335.37,160114,,,A*66
$GPRMC,150212.000,A,3302.1340,S,06053.7526,W,0.05,335.37,160114,,,A*61
$GPRMC,150213.000,A,3302.1340,S,06053.7526,W,0.09,335.37,160114,,,A*6C
$GPRMC,150214.000,A,3302.1340,S,06053.7525,W,0.19,335.37,160114,,,A*69
$GPRMC,150215.000,A,3302.1340,S,06053.7525,W,0.24,335.37,160114,,,A*66
$GPRMC,150216.000,A,3302.1340,S,06053.7524,W,0.28,335.37,160114,,,A*68
$GPRMC,150217.000,A,3302.1341,S,06053.7523,W,0.32,335.37,160114,,,A*64
$GPRMC,150218.000,A,3302.1341,S,06053.7523,W,0.36,335.37,160114,,,A*6F
$GPRMC,150219.000,A,3302.1342,S,06053.7522,W,0.44,335.37,160114,,,A*69
$GPRMC,150220.000,A,3302.1343,S,06053.7521,W,0.38,335.37,160114,,,A*6A
$GPRMC,150221.000,A,3302.1344,S,06053.7520,W,0.25,335.37,160114,,,A*61
$GPRMC,150222.000,A,3302.1345,S,06053.7520,W,0.17,335.37,160114,,,A*62
$GPRMC,150223.000,A,3302.1345,S,06053.7519,W,0.29,335.37,160114,,,A*64
$GPRMC,150224.000,A,3302.1345,S,06053.7518,W,0.39,335.37,160114,,,A*63
$GPRMC,150225.000,A,3302.1345,S,06053.7517,W,0.44,335.37,160114,,,A*67
$GPRMC,150226.000,A,3302.1345,S,06053.7515,W,0.53,335.37,160114,,,A*60
$GPRMC,150227.000,A,3302.1345,S,06053.7514,W,0.58,335.37,160114,,,A*6B
$GPRMC,150228.000,A,3302.1345,S,06053.7512,W,0.49,335.37,160114,,,A*62
$GPRMC,150229.000,A,3302.1345,S,06053.7510,W,0.40,335.37,160114,,,A*68
$GPRMC,150230.000,A,3302.1344,S,06053.7509,W,0.39,335.37,160114,,,A*67
$GPRMC,150231.000,A,3302.1344,S,06053.7508,W,0.30,335.37,160114,,,A*6E
$GPRMC,150232.000,A,3302.1343,S,06053.7507,W,0.27,335.37,160114,,,A*63
$GPRMC,150233.000,A,3302.1343,S,06053.7507,W,0.34,335.37,160114,,,A*60
$GPRMC,150234.000,A,3302.1342,S,06053.7506,W,0.39,335.37,160114,,,A*6A
$GPRMC,150235.000,A,3302.1342,S,06053.7504,W,0.50,335.37,160114,,,A*66
$GPRMC,150236.000,A,3302.1342,S,06053.7503,W,0.41,335.37,160114,,,A*62
$GPRMC,150237.000,A,3302.1342,S,06053.7501,W,0.34,335.37,160114,,,A*63
$GPRMC,150238.000,A,3302.1343,S,06053.7501,W,0.38,335.37,160114,,,A*61
$GPRMC,150239.000,A,3302.1343,S,06053.7499,W,0.35,335.37,160114,,,A*6D
$GPRMC,150240.000,A,3302.1343,S,06053.7498,W,0.43,335.37,160114,,,A*63
$GPRMC,150241.000,A,3302.1344,S,06053.7497,W,0.71,115.94,160114,,,A*62
$GPRMC,150242.000,A,3302.1344,S,06053.7495,W,0.38,115.94,160114,,,A*6E
$GPRMC,150243.000,A,3302.1344,S,06053.7495,W,0.06,115.94,160114,,,A*62
$GPRMC,150244.000,A,3302.1343,S,06053.7495,W,0.09,115.94,160114,,,A*6D
$GPRMC,150245.000,A,3302.1345,S,06053.7495,W,0.16,115.94,160114,,,A*64
$GPRMC,150246.000,A,3302.1346,S,06053.7495,W,0.13,115.94,160114,,,A*61
$GPRMC,150247.000,A,3302.1346,S,06053.7494,W,0.13,115.94,160114,,,A*61
$GPRMC,150248.000,A,3302.1346,S,06053.7494,W,0.09,115.94,160114,,,A*65
$GPRMC,150249.000,A,3302.1346,S,06053.7494,W,0.08,115.94,160114,,,A*65
$GPRMC,150250.000,A,3302.1346,S,06053.7494,W,0.07,115.94,160114,,,A*62
$GPRMC,150251.000,A,3302.1346,S,06053.7493,W,0.10,115.94,160114,,,A*62
$GPRMC,150252.000,A,3302.1346,S,06053.7493,W,0.10,115.94,160114,,,A*61
$GPRMC,150253.000,A,3302.1346,S,06053.7493,W,0.10,115.94,160114,,,A*60
$GPRMC,150254.000,A,3302.1346,S,06053.7493,W,0.11,115.94,160114,,,A*66
$GPRMC,150255.000,A,3302.1346,S,06053.7494,W,0.10,115.94,160114,,,A*61
$GPRMC,150256.000,A,3302.1345,S,06053.7494,W,0.25,115.94,160114,,,A*67
$GPRMC,150257.000,A,3302.1345,S,06053.7494,W,0.12,115.94,160114,,,A*62
$GPRMC,150258.000,A,3302.1344,S,06053.7494,W,0.13,115.94,160114,,,A*6D
$GPRMC,150259.000,A,3302.1344,S,06053.7494,W,0.14,115.94,160114,,,A*6B
$GPRMC,150300.000,A,3302.1344,S,06053.7494,W,0.03,115.94,160114,,,A*60
$GPRMC,150301.000,A,3302.1344,S,06053.7494,W,0.15,115.94,160114,,,A*66
$GPRMC,150302.000,A,3302.1343,S,06053.7494,W,0.31,115.94,160114,,,A*64
$GPRMC,150303.000,A,3302.1343,S,06053.7494,W,0.45,115.94,160114,,,A*66
$GPRMC,150304.000,A,3302.1342,S,06053.7495,W,0.55,115.94,160114,,,A*60
$GPRMC,150305.000,A,3302.1341,S,06053.7496,W,0.75,318.19,160114,,,A*69
$GPRMC,150306.000,A,3302.1343,S,06053.7495,W,0.50,318.19,160114,,,A*6C
$GPRMC,150307.000,A,3302.1343,S,06053.7493,W,0.47,318.19,160114,,,A*6D
$GPRMC,150308.000,A,3302.1345,S,06053.7493,W,0.48,318.19,160114,,,A*6B
$GPRMC,150309.000,A,3302.1347,S,06053.7492,W,0.47,318.19,160114,,,A*66
$GPRMC,150310.000,A,3302.1350,S,06053.7492,W,0.41,318.19,160114,,,A*6E
$GPRMC,150311.000,A,3302.1350,S,06053.7493,W,0.42,318.19,160114,,,A*6D
$GPRMC,150312.000,A,3302.1349,S,06053.7493,W,0.69,342.74,160114,,,A*6B
$GPRMC,150313.000,A,3302.1349,S,06053.7494,W,0.68,341.98,160114,,,A*6D
$GPRMC,150314.000,A,3302.1350,S,06053.7493,W,0.61,341.98,160114,,,A*6C
$GPRMC,150315.000,A,3302.1350,S,06053.7496,W,0.66,314.79,160114,,,A*60
$GPRMC,150316.000,A,3302.1349,S,06053.7494,W,0.67,315.41,160114,,,A*62
$GPRMC,150317.000,A,3302.1350,S,06053.7493,W,0.62,315.41,160114,,,A*69
$GPRMC,150318.000,A,3302.1348,S,06053.7493,W,0.60,315.41,160114,,,A*6D
$GPRMC,150319.000,A,3302.1347,S,06053.7493,W,0.57,315.41,160114,,,A*67
$GPRMC,150320.000,A,3302.1345,S,06053.7494,W,0.57,317.25,160114,,,A*68
$GPRMC,150321.000,A,3302.1344,S,06053.7496,W,0.57,317.37,160114,,,A*69
$GPRMC,150322.000,A,3302.1344,S,06053.7497,W,0.54,317.80,160114,,,A*64
$GPRMC,150323.000,A,3302.1347,S,06053.7494,W,0.16,318.16,160114,,,A*63
$GPRMC,150324.000,A,3302.1349,S,06053.7493,W,0.16,318.37,160114,,,A*6E
$GPRMC,150325.000,A,3302.1350,S,06053.7494,W,0.19,318.37,160114,,,A*6F
$GPRMC,150326.000,A,3302.1349,S,06053.7494,W,0.26,318.37,160114,,,A*68
$GPRMC,150327.000,A,3302.1349,S,06053.7495,W,0.15,318.37,160114,,,A*68
$GPRMC,150328.000,A,3302.1349,S,06053.7495,W,0.11,318.37,160114,,,A*63
$GPRMC,150329.000,A,3302.1349,S,06053.7496,W,0.16,318.37,160114,,,A*66
$GPRMC,150330.000,A,3302.1349,S,06053.7496,W,0.27,318.37,160114,,,A*6C
$GPRMC,150331.000,A,3302.1348,S,06053.7496,W,0.35,318.37,160114,,,A*6F
$GPRMC,150332.000,A,3302.1347,S,06053.7497,W,0.44,318.37,160114,,,A*64
$GPRMC,150333.000,A,3302.1346,S,06053.7497,W,0.22,318.37,160114,,,A*64
$GPRMC,150334.000,A,3302.1346,S,06053.7498,W,0.30,318.37,160114,,,A*6F
$GPRMC,150335.000,A,3302.1345,S,06053.7497,W,0.17,318.37,160114,,,A*67
$GPRMC,150336.000,A,3302.1345,S,06053.7496,W,0.24,318.37,160114,,,A*65
$GPRMC,150337.000,A,3302.1345,S,06053.7496,W,0.18,318.37,160114,,,A*6B
$GPRMC,150338.000,A,3302.1345,S,06053.7496,W,0.29,318.37,160114,,,A*66
$GPRMC,150339.000,A,3302.1346,S,06053.7497,W,0.30,318.37,160114,,,A*6D
$GPRMC,150340.000,A,3302.1346,S,06053.7498,W,0.36,318.37,160114,,,A*6A
$GPRMC,150341.000,A,3302.1345,S,06053.7500,W,0.38,318.37,160114,,,A*66
$GPRMC,150342.000,A,3302.1345,S,06053.7501,W,0.37,318.37,160114,,,A*6B
$GPRMC,150343.000,A,3302.1345,S,06053.7502,W,0.36,318.37,160114,,,A*68
$GPRMC,150344.000,A,3302.1344,S,06053.7503,W,0.33,318.37,160114,,,A*6A
$GPRMC,150345.000,A,3302.1343,S,06053.7503,W,0.33,318.37,160114,,,A*6C
$GPRMC,150346.000,A,3302.1342,S,06053.7504,W,0.33,318.37,160114,,,A*69
$GPRMC,150347.000,A,3302.1342,S,06053.7504,W,0.22,318.37,160114,,,A*68
$GPRMC,150348.000,A,3302.1341,S,06053.7504,W,0.18,318.37,160114,,,A*6D
$GPRMC,150349.000,A,3302.1341,S,06053.7504,W,0.17,318.37,160114,,,A*63
$GPRMC,150350.000,A,3302.1340,S,06053.7504,W,0.23,318.37,160114,,,A*6D
$GPRMC,150351.000,A,3302.1340,S,06053.7504,W,0.07,318.37,160114,,,A*6A
$GPRMC,150352.000,A,3302.1340,S,06053.7503,W,0.12,318.37,160114,,,A*6A
$GPRMC,150353.000,A,3302.1340,S,06053.7503,W,0.20,318.37,160114,,,A*6A
$GPRMC,150354.000,A,3302.1341,S,06053.7503,W,0.21,318.37,160114,,,A*6D
$GPRMC,150355.000,A,3302.1341,S,06053.7503,W,0.40,318.37,160114,,,A*6B
$GPRMC,150356.000,A,3302.1342,S,06053.7502,W,0.39,318.37,160114,,,A*64
$GPRMC,150357.000,A,3302.1343,S,06053.7501,W,0.54,318.37,160114,,,A*6C
$GPRMC,150358.000,A,3302.1344,S,06053.7499,W,0.67,114.72,160114,,,A*6B
$GPRMC,150359.000,A,3302.1345,S,06053.7498,W,0.63,112.80,160114,,,A*65
$GPRMC,150400.000,A,3302.1347,S,06053.7499,W,0.17,112.80,160114,,,A*6E
$GPRMC,150401.000,A,3302.1348,S,06053.7498,W,0.13,112.80,160114,,,A*65
$GPRMC,150402.000,A,3302.1349,S,06053.7497,W,0.16,112.80,160114,,,A*6D
$GPRMC,150403.000,A,3302.1350,S,06053.7496,W,0.19,112.80,160114,,,A*6A
$GPRMC,150404.000,A,3302.1350,S,06053.7496,W,0.07,112.80,160114,,,A*62
$GPRMC,150405.000,A,3302.1350,S,06053.7496,W,0.13,112.80,160114,,,A*66
$GPRMC,150406.000,A,3302.1349,S,06053.7496,W,0.30,112.80,160114,,,A*6C
$GPRMC,150407.000,A,3302.1349,S,06053.7496,W,0.30,112.80,160114,,,A*6D
$GPRMC,150408.000,A,3302.1348,S,06053.7497,W,0.38,112.80,160114,,,A*6A
$GPRMC,150409.000,A,3302.1347,S,06053.7498,W,0.48,112.80,160114,,,A*6C
$GPRMC,150410.000,A,3302.1347,S,06053.7499,W,0.50,112.80,160114,,,A*6C
$GPRMC,150411.000,A,3302.1346,S,06053.7501,W,0.42,112.80,160114,,,A*6F
$GPRMC,150412.000,A,3302.1345,S,06053.7502,W,0.11,112.80,160114,,,A*6A
$GPRMC,150413.000,A,3302.1345,S,06053.7501,W,0.31,112.80,160114,,,A*6A
$GPRMC,150414.000,A,3302.1346,S,06053.7500,W,0.40,112.80,160114,,,A*69
$GPRMC,150415.000,A,3302.1346,S,06053.7499,W,0.25,112.80,160114,,,A*6A
$GPRMC,150416.000,A,3302.1346,S,06053.7498,W,0.13,112.80,160114,,,A*6D
$GPRMC,150417.000,A,3302.1346,S,06053.7498,W,0.21,112.80,160114,,,A*6D
$GPRMC,150418.000,A,3302.1346,S,06053.7497,W,0.17,112.80,160114,,,A*68
$GPRMC,150419.000,A,3302.1346,S,06053.7497,W,0.34,112.80,160114,,,A*68
$GPRMC,150420.000,A,3302.1346,S,06053.7495,W,0.26,112.80,160114,,,A*63
$GPRMC,150421.000,A,3302.1346,S,06053.7495,W,0.33,112.80,160114,,,A*66
$GPRMC,150422.000,A,3302.1346,S,06053.7494,W,0.34,112.80,160114,,,A*63
$GPRMC,150423.000,A,3302.1345,S,06053.7493,W,0.17,112.80,160114,,,A*67
$GPRMC,150424.000,A,3302.1345,S,06053.7492,W,0.16,112.80,160114,,,A*60
$GPRMC,150425.000,A,3302.1345,S,06053.7492,W,0.16,112.80,160114,,,A*61
$GPRMC,150426.000,A,3302.1346,S,06053.7491,W,0.14,112.80,160114,,,A*60
$GPRMC,150427.000,A,3302.1346,S,06053.7491,W,0.19,112.80,160114,,,A*6C
$GPRMC,150428.000,A,3302.1347,S,06053.7491,W,0.21,112.80,160114,,,A*69
$GPRMC,150429.000,A,3302.1346,S,06053.7491,W,0.22,112.80,160114,,,A*6A
$GPRMC,150430.000,A,3302.1346,S,06053.7492,W,0.13,112.80,160114,,,A*63
$GPRMC,150431.000,A,3302.1346,S,06053.7492,W,0.04,112.80,160114,,,A*64
$GPRMC,150432.000,A,3302.1346,S,06053.7492,W,0.17,112.80,160114,,,A*65
$GPRMC,150433.000,A,3302.1346,S,06053.7491,W,0.34,112.80,160114,,,A*66
$GPRMC,150434.000,A,3302.1346,S,06053.7490,W,0.27,112.80,160114,,,A*62
$GPRMC,150435.000,A,3302.1346,S,06053.7489,W,0.38,112.80,160114,,,A*65
$GPRMC,150436.000,A,3302.1347,S,06053.7488,W,0.27,112.80,160114,,,A*68
$GPRMC,150437.000,A,3302.1347,S,06053.7487,W,0.13,112.80,160114,,,A*61
$GPRMC,150438.000,A,3302.1347,S,06053.7487,W,0.05,112.80,160114,,,A*69
$GPRMC,150439.000,A,3302.1347,S,06053.7487,W,0.15,112.80,160114,,,A*69
$GPRMC,150440.000,A,3302.1347,S,06053.7487,W,0.22,112.80,160114,,,A*63
$GPRMC,150441.000,A,3302.1346,S,06053.7488,W,0.24,112.80,160114,,,A*6A
$GPRMC,150442.000,A,3302.1346,S,06053.7488,W,0.25,112.80,160114,,,A*68
$GPRMC,150443.000,A,3302.1346,S,06053.7489,W,0.09,112.80,160114,,,A*66
$GPRMC,150444.000,A,3302.1346,S,06053.7489,W,0.08,112.80,160114,,,A*60
$GPRMC,150445.000,A,3302.1346,S,06053.7489,W,0.18,112.80,160114,,,A*60
$GPRMC,150446.000,A,3302.1346,S,06053.7489,W,0.17,112.80,160114,,,A*6C
$GPRMC,150447.000,A,3302.1347,S,06053.7488,W,0.35,112.80,160114,,,A*6D
$GPRMC,150448.000,A,3302.1346,S,06053.7491,W,0.67,342.04,160114,,,A*67
$GPRMC,150449.000,A,3302.1345,S,06053.7495,W,0.73,341.49,160114,,,A*6E
$GPRMC,150450.000,A,3302.1341,S,06053.7497,W,0.80,340.71,160114,,,A*66
$GPRMC,150451.000,A,3302.1341,S,06053.7501,W,0.79,339.09,160114,,,A*6E
$GPRMC,150452.000,A,3302.1340,S,06053.7503,W,0.75,338.17,160114,,,A*6C
$GPRMC,150453.000,A,3302.1340,S,06053.7506,W,0.54,338.17,160114,,,A*6B
$GPRMC,150454.000,A,3302.1341,S,06053.7508,W,0.36,337.51,160114,,,A*6A
$GPRMC,150455.000,A,3302.1344,S,06053.7508,W,0.08,337.30,160114,,,A*64
$GPRMC,150456.000,A,3302.1344,S,06053.7511,W,0.45,337.28,160114,,,A*6F
$GPRMC,150457.000,A,3302.1343,S,06053.7513,W,0.47,337.28,160114,,,A*69
$GPRMC,150458.000,A,3302.1343,S,06053.7514,W,0.42,337.28,160114,,,A*64
$GPRMC,150459.000,A,3302.1342,S,06053.7515,W,0.54,337.28,160114,,,A*62
$GPRMC,150500.000,A,3302.1341,S,06053.7516,W,0.58,337.28,160114,,,A*63
$GPRMC,150501.000,A,3302.1339,S,06053.7517,W,0.65,307.82,160114,,,A*61
$GPRMC,150502.000,A,3302.1339,S,06053.7519,W,0.72,311.40,160114,,,A*63
$GPRMC,150503.000,A,3302.1338,S,06053.7519,W,0.71,325.01,160114,,,A*62
$GPRMC,150504.000,A,3302.1339,S,06053.7521,W,0.68,324.25,160114,,,A*60
$GPRMC,150505.000,A,3302.1339,S,06053.7522,W,0.65,323.28,160114,,,A*65
$GPRMC,150506.000,A,3302.1339,S,06053.7522,W,0.64,321.68,160114,,,A*61
$GPRMC,150507.000,A,3302.1338,S,06053.7522,W,0.61,321.75,160114,,,A*68
$GPRMC,150508.000,A,3302.1335,S,06053.7522,W,0.62,326.56,160114,,,A*6F
$GPRMC,150509.000,A,3302.1333,S,06053.7522,W,0.61,320.14,160114,,,A*6B
$GPRMC,150510.000,A,3302.1332,S,06053.7522,W,0.58,320.14,160114,,,A*68
$GPRMC,150511.000,A,3302.1334,S,06053.7522,W,0.25,320.14,160114,,,A*65
$GPRMC,150512.000,A,3302.1336,S,06053.7520,W,0.28,320.14,160114,,,A*6B
$GPRMC,150513.000,A,3302.1335,S,06053.7520,W,0.34,320.14,160114,,,A*64
$GPRMC,150514.000,A,3302.1337,S,06053.7520,W,0.35,320.14,160114,,,A*60
$GPRMC,150515.000,A,3302.1338,S,06053.7520,W,0.27,320.14,160114,,,A*6D
$GPRMC,150516.000,A,3302.1339,S,06053.7518,W,0.25,320.14,160114,,,A*66
$GPRMC,150517.000,A,3302.1340,S,06053.7519,W,0.09,320.14,160114,,,A*66
$GPRMC,150518.000,A,3302.1342,S,06053.7519,W,0.15,320.14,160114,,,A*66
$GPRMC,150519.000,A,3302.1343,S,06053.7519,W,0.23,320.14,160114,,,A*63
$GPRMC,150520.000,A,3302.1343,S,06053.7520,W,0.11,320.14,160114,,,A*62
$GPRMC,150521.000,A,3302.1347,S,06053.7519,W,0.70,158.65,160114,,,A*61
$GPRMC,150522.000,A,3302.1348,S,06053.7517,W,0.73,157.85,160114,,,A*61
$GPRMC,150523.000,A,3302.1349,S,06053.7517,W,0.69,156.14,160114,,,A*63
$GPRMC,150524.000,A,3302.1350,S,06053.7517,W,0.70,154.44,160114,,,A*63
$GPRMC,150525.000,A,3302.1351,S,06053.7519,W,0.38,154.44,160114,,,A*61
$GPRMC,150526.000,A,3302.1352,S,06053.7521,W,0.36,154.44,160114,,,A*64
$GPRMC,150527.000,A,3302.1353,S,06053.7521,W,0.32,154.44,160114,,,A*60
$GPRMC,150528.000,A,3302.1352,S,06053.7520,W,0.03,154.44,160114,,,A*6D
$GPRMC,150529.000,A,3302.1352,S,06053.7520,W,0.21,154.44,160114,,,A*6C
$GPRMC,150530.000,A,3302.1351,S,06053.7520,W,0.35,154.44,160114,,,A*62
$GPRMC,150531.000,A,3302.1351,S,06053.7521,W,0.31,154.44,160114,,,A*66
$GPRMC,150532.000,A,3302.1350,S,06053.7522,W,0.17,154.44,160114,,,A*63
$GPRMC,150533.000,A,3302.1350,S,06053.7521,W,0.13,154.44,160114,,,A*65
$GPRMC,150534.000,A,3302.1350,S,06053.7522,W,0.11,154.44,160114,,,A*63
$GPRMC,150535.000,A,3302.1349,S,06053.7521,W,0.29,154.44,160114,,,A*62
$GPRMC,150536.000,A,3302.1349,S,06053.7520,W,0.27,154.44,160114,,,A*6E
$GPRMC,150537.000,A,3302.1349,S,06053.7520,W,0.50,154.44,160114,,,A*6F
$GPRMC,150538.000,A,3302.1348,S,06053.7521,W,0.51,154.44,160114,,,A*61
$GPRMC,150539.000,A,3302.1346,S,06053.7522,W,0.50,154.44,160114,,,A*6C
$GPRMC,150540.000,A,3302.1345,S,06053.7522,W,0.37,154.44,160114,,,A*60
$GPRMC,150541.000,A,3302.1344,S,06053.7523,W,0.27,154.44,160114,,,A*60
$GPRMC,150542.000,A,3302.1343,S,06053.7522,W,0.31,154.44,160114,,,A*62
$GPRMC,150543.000,A,3302.1343,S,06053.7522,W,0.36,154.44,160114,,,A*64
$GPRMC,150544.000,A,3302.1342,S,06053.7522,W,0.33,154.44,160114,,,A*67
$GPRMC,150545.000,A,3302.1341,S,06053.7522,W,0.36,154.44,160114,,,A*60
$GPRMC,150546.000,A,3302.1340,S,06053.7522,W,0.14,154.44,160114,,,A*62
$GPRMC,150547.000,A,3302.1339,S,06053.7522,W,0.19,154.44,160114,,,A*60
$GPRMC,150548.000,A,3302.1339,S,06053.7521,W,0.22,154.44,160114,,,A*64
$GPRMC,150549.000,A,3302.1339,S,06053.7521,W,0.22,154.44,160114,,,A*65
$GPRMC,150550.000,A,3302.1339,S,06053.7520,W,0.25,154.44,160114,,,A*6B
$GPRMC,150551.000,A,3302.1339,S,06053.7519,W,0.33,154.44,160114,,,A*67
$GPRMC,150552.000,A,3302.1339,S,06053.7518,W,0.69,120.95,160114,,,A*65
$GPRMC,150553.000,A,3302.1341,S,06053.7517,W,0.76,129.07,160114,,,A*68
$GPRMC,150554.000,A,3302.1342,S,06053.7515,W,1.06,127.26,160114,,,A*65
$GPRMC,150555.000,A,3302.1344,S,06053.7513,W,1.04,128.18,160114,,,A*64
$GPRMC,150556.000,A,3302.1345,S,06053.7517,W,0.45,128.18,160114,,,A*66
$GPRMC,150557.000,A,3302.1343,S,06053.7517,W,0.18,128.18,160114,,,A*69
$GPRMC,150558.000,A,3302.1343,S,06053.7517,W,0.17,128.18,160114,,,A*69
$GPRMC,150559.000,A,3302.1342,S,06053.7516,W,0.14,128.35,160114,,,A*64
$GPRMC,150600.000,A,3302.1342,S,06053.7517,W,0.04,128.27,160114,,,A*68
$GPRMC,150601.000,A,3302.1342,S,06053.7517,W,0.04,128.27,160114,,,A*69
$GPRMC,150602.000,A,3302.1342,S,06053.7517,W,0.06,128.27,160114,,,A*68
$GPRMC,150603.000,A,3302.1342,S,06053.7517,W,0.10,128.27,160114,,,A*6E
$GPRMC,150604.000,A,3302.1341,S,06053.7517,W,0.15,128.27,160114,,,A*6F
$GPRMC,150605.000,A,3302.1341,S,06053.7517,W,0.46,128.27,160114,,,A*68
$GPRMC,150606.000,A,3302.1340,S,06053.7518,W,0.54,128.27,160114,,,A*66
$GPRMC,150607.000,A,3302.1338,S,06053.7519,W,0.64,341.28,160114,,,A*68
$GPRMC,150608.000,A,3302.1337,S,06053.7518,W,0.60,341.28,160114,,,A*6D
$GPRMC,150609.000,A,3302.1338,S,06053.7518,W,0.28,341.28,160114,,,A*6F
$GPRMC,150610.000,A,3302.1340,S,06053.7517,W,0.63,110.95,160114,,,A*68
$GPRMC,150611.000,A,3302.1344,S,06053.7516,W,0.84,112.62,160114,,,A*6F
$GPRMC,150612.000,A,3302.1347,S,06053.7514,W,1.03,115.12,160114,,,A*63
$GPRMC,150613.000,A,3302.1350,S,06053.7513,W,1.00,117.53,160114,,,A*67
$GPRMC,150614.000,A,3302.1349,S,06053.7512,W,0.47,117.53,160114,,,A*6B
$GPRMC,150615.000,A,3302.1348,S,06053.7512,W,0.29,117.53,160114,,,A*63
$GPRMC,150616.000,A,3302.1348,S,06053.7513,W,0.34,117.53,160114,,,A*6D
$GPRMC,150617.000,A,3302.1347,S,06053.7512,W,0.70,350.10,160114,,,A*64
$GPRMC,150618.000,A,3302.1348,S,06053.7511,W,0.42,350.10,160114,,,A*66
$GPRMC,150619.000,A,3302.1348,S,06053.7511,W,0.20,350.10,160114,,,A*63
$GPRMC,150620.000,A,3302.1349,S,06053.7510,W,0.37,350.10,160114,,,A*6F
$GPRMC,150621.000,A,3302.1350,S,06053.7510,W,0.68,320.86,160114,,,A*64
$GPRMC,150622.000,A,3302.1351,S,06053.7511,W,0.71,305.37,160114,,,A*62
$GPRMC,150623.000,A,3302.1351,S,06053.7509,W,0.38,305.37,160114,,,A*67
$GPRMC,150624.000,A,3302.1353,S,06053.7507,W,0.17,305.37,160114,,,A*61
$GPRMC,150625.000,A,3302.1355,S,06053.7505,W,0.24,305.37,160114,,,A*64
$GPRMC,150626.000,A,3302.1358,S,06053.7503,W,0.42,305.37,160114,,,A*6C
$GPRMC,150627.000,A,3302.1359,S,06053.7503,W,0.57,305.37,160114,,,A*68
$GPRMC,150628.000,A,3302.1360,S,06053.7502,W,0.73,164.26,160114,,,A*6F
$GPRMC,150629.000,A,3302.1362,S,06053.7502,W,0.56,164.26,160114,,,A*6B
$GPRMC,150630.000,A,3302.1360,S,06053.7502,W,0.34,164.26,160114,,,A*65
$GPRMC,150631.000,A,3302.1359,S,06053.7503,W,0.83,324.21,160114,,,A*62
$GPRMC,150632.000,A,3302.1358,S,06053.7504,W,1.11,322.59,160114,,,A*64
$GPRMC,150633.000,A,3302.1358,S,06053.7504,W,0.80,322.05,160114,,,A*65
$GPRMC,150634.000,A,3302.1360,S,06053.7502,W,0.50,322.05,160114,,,A*62
$GPRMC,150635.000,A,3302.1361,S,06053.7503,W,0.45,322.05,160114,,,A*67
$GPRMC,150636.000,A,3302.1362,S,06053.7502,W,0.14,322.05,160114,,,A*62
$GPRMC,150637.000,A,3302.1361,S,06053.7501,W,0.14,321.95,160114,,,A*69
$GPRMC,150638.000,A,3302.1361,S,06053.7501,W,0.17,322.00,160114,,,A*6A
$GPRMC,150639.000,A,3302.1361,S,06053.7501,W,0.31,322.00,160114,,,A*6F
$GPRMC,150640.000,A,3302.1362,S,06053.7500,W,0.84,155.21,160114,,,A*6C
$GPRMC,150641.000,A,3302.1362,S,06053.7500,W,0.81,154.33,160114,,,A*6A
$GPRMC,150642.000,A,3302.1363,S,06053.7500,W,0.64,156.99,160114,,,A*61
$GPRMC,150643.000,A,3302.1365,S,06053.7499,W,0.67,157.04,160114,,,A*61
$GPRMC,150644.000,A,3302.1368,S,06053.7498,W,1.03,158.97,160114,,,A*6C
$GPRMC,150645.000,A,3302.1370,S,06053.7498,W,0.87,167.37,160114,,,A*6F
$GPRMC,150646.000,A,3302.1371,S,06053.7497,W,0.57,167.37,160114,,,A*6F
$GPRMC,150647.000,A,3302.1370,S,06053.7497,W,0.19,167.37,160114,,,A*65
$GPRMC,150648.000,A,3302.1370,S,06053.7496,W,0.56,167.37,160114,,,A*60
$GPRMC,150649.000,A,3302.1368,S,06053.7497,W,0.80,326.82,160114,,,A*6B
$GPRMC,150650.000,A,3302.1367,S,06053.7498,W,0.79,329.57,160114,,,A*62
$GPRMC,150651.000,A,3302.1365,S,06053.7498,W,0.80,330.55,160114,,,A*6D
$GPRMC,150652.000,A,3302.1363,S,06053.7499,W,0.76,331.86,160114,,,A*6F
$GPRMC,150653.000,A,3302.1362,S,06053.7497,W,0.70,332.98,160114,,,A*6B
$GPRMC,150654.000,A,3302.1360,S,06053.7496,W,0.64,332.98,160114,,,A*6A
$GPRMC,150655.000,A,3302.1359,S,06053.7496,W,0.59,332.98,160114,,,A*6F
$GPRMC,150656.000,A,3302.1357,S,06053.7497,W,0.57,333.06,160114,,,A*6B
$GPRMC,150657.000,A,3302.1357,S,06053.7497,W,0.53,333.06,160114,,,A*6E
$GPRMC,150658.000,A,3302.1356,S,06053.7496,W,0.32,333.06,160114,,,A*66
$GPRMC,150659.000,A,3302.1355,S,06053.7497,W,0.38,333.06,160114,,,A*6F
$GPRMC,150700.000,A,3302.1355,S,06053.7499,W,0.37,333.07,160114,,,A*62
$GPRMC,150701.000,A,3302.1355,S,06053.7500,W,0.45,333.07,160114,,,A*67
$GPRMC,150702.000,A,3302.1354,S,06053.7501,W,0.58,333.07,160114,,,A*68
$GPRMC,150703.000,A,3302.1353,S,06053.7502,W,0.49,333.07,160114,,,A*6D
$GPRMC,150704.000,A,3302.1351,S,06053.7503,W,0.36,333.07,160114,,,A*61
$GPRMC,150705.000,A,3302.1351,S,06053.7503,W,0.17,333.07,160114,,,A*63
$GPRMC,150706.000,A,3302.1351,S,06053.7504,W,0.34,333.07,160114,,,A*66
$GPRMC,150707.000,A,3302.1350,S,06053.7507,W,0.39,333.07,160114,,,A*68
$GPRMC,150708.000,A,3302.1350,S,06053.7506,W,0.33,333.07,160114,,,A*6C
$GPRMC,150709.000,A,3302.1349,S,06053.7507,W,0.34,333.07,160114,,,A*63
$GPRMC,150710.000,A,3302.1348,S,06053.7507,W,0.55,333.07,160114,,,A*6D
$GPRMC,150711.000,A,3302.1346,S,06053.7508,W,0.40,333.07,160114,,,A*69
$GPRMC,150712.000,A,3302.1346,S,06053.7509,W,0.22,333.07,160114,,,A*6F
$GPRMC,150713.000,A,3302.1345,S,06053.7510,W,0.34,333.07,160114,,,A*62
$GPRMC,150714.000,A,3302.1346,S,06053.7512,W,0.41,333.07,160114,,,A*66
$GPRMC,150715.000,A,3302.1346,S,06053.7511,W,0.38,333.07,160114,,,A*6A
$GPRMC,150716.000,A,3302.1346,S,06053.7511,W,0.19,333.07,160114,,,A*6A
$GPRMC,150717.000,A,3302.1346,S,06053.7510,W,0.12,333.07,160114,,,A*61
$GPRMC,150718.000,A,3302.1346,S,06053.7510,W,0.43,333.07,160114,,,A*6A
$GPRMC,150719.000,A,3302.1348,S,06053.7510,W,0.57,333.07,160114,,,A*60
$GPRMC,150720.000,A,3302.1349,S,06053.7509,W,0.90,137.59,160114,,,A*65
$GPRMC,150721.000,A,3302.1349,S,06053.7508,W,0.70,133.61,160114,,,A*64
$GPRMC,150722.000,A,3302.1349,S,06053.7505,W,0.53,133.61,160114,,,A*6B
$GPRMC,150723.000,A,3302.1350,S,06053.7505,W,0.35,133.61,160114,,,A*62
$GPRMC,150724.000,A,3302.1350,S,06053.7508,W,0.13,133.61,160114,,,A*6C
$GPRMC,150725.000,A,3302.1351,S,06053.7507,W,0.11,133.61,160114,,,A*61
$GPRMC,150726.000,A,3302.1351,S,06053.7507,W,0.32,133.61,160114,,,A*63
$GPRMC,150727.000,A,3302.1350,S,06053.7507,W,0.61,333.60,160114,,,A*66
$GPRMC,150728.000,A,3302.1351,S,06053.7507,W,0.42,333.60,160114,,,A*69
$GPRMC,150729.000,A,3302.1352,S,06053.7507,W,0.11,333.60,160114,,,A*6D
$GPRMC,150730.000,A,3302.1354,S,06053.7507,W,0.15,333.60,160114,,,A*67
$GPRMC,150731.000,A,3302.1354,S,06053.7506,W,0.15,333.60,160114,,,A*67
$GPRMC,150732.000,A,3302.1356,S,06053.7506,W,0.15,333.60,160114,,,A*66
$GPRMC,150733.000,A,3302.1355,S,06053.7506,W,0.03,333.60,160114,,,A*63
$GPRMC,150734.000,A,3302.1355,S,06053.7506,W,0.16,333.60,160114,,,A*60
$GPRMC,150735.000,A,3302.1356,S,06053.7506,W,0.22,333.60,160114,,,A*65
$GPRMC,150736.000,A,3302.1356,S,06053.7507,W,0.18,333.60,160114,,,A*6E
$GPRMC,150737.000,A,3302.1357,S,06053.7507,W,1.06,162.79,160114,,,A*6E
$GPRMC,150738.000,A,3302.1356,S,06053.7508,W,1.03,153.48,160114,,,A*6A
$GPRMC,150739.000,A,3302.1353,S,06053.7509,W,0.85,151.95,160114,,,A*62
$GPRMC,150740.000,A,3302.1352,S,06053.7508,W,0.83,149.23,160114,,,A*6E
$GPRMC,150741.000,A,3302.1353,S,06053.7506,W,0.89,146.83,160114,,,A*6F
$GPRMC,150742.000,A,3302.1354,S,06053.7504,W,0.95,144.92,160114,,,A*66
$GPRMC,150743.000,A,3302.1356,S,06053.7500,W,0.91,120.71,160114,,,A*6A
$GPRMC,150744.000,A,3302.1356,S,06053.7501,W,0.50,120.71,160114,,,A*61
$GPRMC,150745.000,A,3302.1356,S,06053.7502,W,0.48,120.71,160114,,,A*6A
$GPRMC,150746.000,A,3302.1353,S,06053.7501,W,1.06,9.81,160114,,,A*61
$GPRMC,150747.000,A,3302.1351,S,06053.7507,W,1.28,351.21,160114,,,A*6C
$GPRMC,150748.000,A,3302.1350,S,06053.7509,W,1.29,350.54,160114,,,A*6E
$GPRMC,150749.000,A,3302.1350,S,06053.7507,W,1.28,350.22,160114,,,A*61
$GPRMC,150750.000,A,3302.1350,S,06053.7507,W,1.30,350.43,160114,,,A*67
$GPRMC,150751.000,A,3302.1350,S,06053.7506,W,1.25,353.23,160114,,,A*66
$GPRMC,150752.000,A,3302.1351,S,06053.7507,W,0.77,347.02,160114,,,A*65
$GPRMC,150753.000,A,3302.1354,S,06053.7506,W,0.24,347.02,160114,,,A*66
$GPRMC,150754.000,A,3302.1357,S,06053.7504,W,0.06,347.02,160114,,,A*60
$GPRMC,150755.000,A,3302.1359,S,06053.7501,W,0.42,347.02,160114,,,A*6A
$GPRMC,150756.000,A,3302.1362,S,06053.7499,W,0.77,151.97,160114,,,A*6E
$GPRMC,150757.000,A,3302.1365,S,06053.7499,W,0.94,153.18,160114,,,A*60
$GPRMC,150758.000,A,3302.1366,S,06053.7497,W,0.70,153.95,160114,,,A*6D
$GPRMC,150759.000,A,3302.1367,S,06053.7495,W,0.64,156.43,160114,,,A*64
$GPRMC,150800.000,A,3302.1369,S,06053.7493,W,0.48,156.43,160114,,,A*61
$GPRMC,150801.000,A,3302.1370,S,06053.7491,W,0.29,156.43,160114,,,A*6D
$GPRMC,150802.000,A,3302.1372,S,06053.7489,W,0.59,150.04,160114,,,A*67
$GPRMC,150803.000,A,3302.1373,S,06053.7487,W,0.65,148.37,160114,,,A*6F
$GPRMC,150804.000,A,3302.1373,S,06053.7482,W,1.37,124.17,160114,,,A*63
$GPRMC,150805.000,A,3302.1373,S,06053.7479,W,1.59,120.71,160114,,,A*6A
$GPRMC,150806.000,A,3302.1374,S,06053.7478,W,1.18,123.30,160114,,,A*6C
$GPRMC,150807.000,A,3302.1374,S,06053.7476,W,0.84,122.96,160114,,,A*6A
$GPRMC,150808.000,A,3302.1375,S,06053.7473,W,0.86,120.66,160114,,,A*6E
$GPRMC,150809.000,A,3302.1374,S,06053.7471,W,0.90,115.37,160114,,,A*69
$GPRMC,150810.000,A,3302.1375,S,06053.7470,W,0.82,116.83,160114,,,A*6E
$GPRMC,150811.000,A,3302.1373,S,06053.7470,W,0.40,116.83,160114,,,A*67
$GPRMC,150812.000,A,3302.1372,S,06053.7470,W,0.39,116.83,160114,,,A*6B
$GPRMC,150813.000,A,3302.1370,S,06053.7471,W,0.59,351.16,160114,,,A*62
$GPRMC,150814.000,A,3302.1369,S,06053.7472,W,0.51,351.16,160114,,,A*66
$GPRMC,150815.000,A,3302.1368,S,06053.7473,W,0.46,351.16,160114,,,A*61
$GPRMC,150816.000,A,3302.1367,S,06053.7475,W,0.52,347.63,160114,,,A*6B
$GPRMC,150817.000,A,3302.1365,S,06053.7478,W,0.78,343.90,160114,,,A*65
$GPRMC,150818.000,A,3302.1363,S,06053.7481,W,1.12,340.61,160114,,,A*6A
$GPRMC,150819.000,A,3302.1360,S,06053.7485,W,1.48,338.08,160114,,,A*63
$GPRMC,150820.000,A,3302.1358,S,06053.7489,W,1.49,334.60,160114,,,A*6D
$GPRMC,150821.000,A,3302.1359,S,06053.7491,W,1.02,297.85,160114,,,A*68
$GPRMC,150822.000,A,3302.1360,S,06053.7489,W,0.59,298.61,160114,,,A*62
$GPRMC,150823.000,A,3302.1360,S,06053.7490,W,0.64,297.41,160114,,,A*68
$GPRMC,150824.000,A,3302.1359,S,06053.7490,W,0.59,297.41,160114,,,A*6B
$GPRMC,150825.000,A,3302.1358,S,06053.7490,W,0.62,314.75,160114,,,A*6E
$GPRMC,150826.000,A,3302.1356,S,06053.7490,W,0.69,314.30,160114,,,A*69
$GPRMC,150827.000,A,3302.1354,S,06053.7493,W,1.01,313.57,160114,,,A*60
$GPRMC,150828.000,A,3302.1352,S,06053.7496,W,1.08,306.48,160114,,,A*6F
$GPRMC,150829.000,A,3302.1351,S,06053.7498,W,1.11,304.82,160114,,,A*6F
$GPRMC,150830.000,A,3302.1352,S,06053.7497,W,0.44,304.82,160114,,,A*6A
$GPRMC,150831.000,A,3302.1352,S,06053.7497,W,0.37,304.82,160114,,,A*6F
$GPRMC,150832.000,A,3302.1352,S,06053.7497,W,0.39,304.82,160114,,,A*62
$GPRMC,150833.000,A,3302.1353,S,06053.7496,W,0.20,304.82,160114,,,A*6B
$GPRMC,150834.000,A,3302.1352,S,06053.7496,W,0.20,304.82,160114,,,A*6D
$GPRMC,150835.000,A,3302.1352,S,06053.7497,W,0.10,304.82,160114,,,A*6E
$GPRMC,150836.000,A,3302.1352,S,06053.7497,W,0.07,304.82,160114,,,A*6B
$GPRMC,150837.000,A,3302.1352,S,06053.7497,W,0.16,304.82,160114,,,A*6A
$GPRMC,150838.000,A,3302.1352,S,06053.7497,W,0.35,304.82,160114,,,A*64
$GPRMC,150839.000,A,3302.1351,S,06053.7498,W,0.41,304.82,160114,,,A*6A
$GPRMC,150840.000,A,3302.1350,S,06053.7499,W,0.33,304.82,160114,,,A*61
$GPRMC,150841.000,A,3302.1350,S,06053.7499,W,0.55,304.82,160114,,,A*60
$GPRMC,150842.000,A,3302.1349,S,06053.7501,W,0.33,304.82,160114,,,A*6B
$GPRMC,150843.000,A,3302.1348,S,06053.7502,W,0.09,304.82,160114,,,A*61
$GPRMC,150844.000,A,3302.1348,S,06053.7502,W,0.12,304.82,160114,,,A*6C
$GPRMC,150845.000,A,3302.1349,S,06053.7502,W,0.16,304.82,160114,,,A*68
$GPRMC,150846.000,A,3302.1348,S,06053.7501,W,0.33,304.82,160114,,,A*6E
$GPRMC,150847.000,A,3302.1347,S,06053.7502,W,0.58,342.85,160114,,,A*6B
$GPRMC,150848.000,A,3302.1347,S,06053.7504,W,0.65,330.40,160114,,,A*60
$GPRMC,150849.000,A,3302.1346,S,06053.7507,W,0.86,320.63,160114,,,A*6E
$GPRMC,150850.000,A,3302.1347,S,06053.7508,W,0.59,309.01,160114,,,A*65
$GPRMC,150851.000,A,3302.1348,S,06053.7508,W,0.25,309.01,160114,,,A*60
$GPRMC,150852.000,A,3302.1350,S,06053.7508,W,0.33,309.01,160114,,,A*6D
$GPRMC,150853.000,A,3302.1350,S,06053.7508,W,0.39,309.01,160114,,,A*66
$GPRMC,150854.000,A,3302.1353,S,06053.7506,W,0.70,155.84,160114,,,A*67
$GPRMC,150855.000,A,3302.1354,S,06053.7502,W,0.41,155.84,160114,,,A*67
$GPRMC,150856.000,A,3302.1355,S,06053.7500,W,0.18,155.84,160114,,,A*6B
$GPRMC,150857.000,A,3302.1356,S,06053.7499,W,0.25,155.84,160114,,,A*66
$GPRMC,150858.000,A,3302.1355,S,06053.7499,W,0.07,155.84,160114,,,A*6A
$GPRMC,150859.000,A,3302.1355,S,06053.7499,W,0.49,155.84,160114,,,A*61
$GPRMC,150900.000,A,3302.1356,S,06053.7498,W,0.36,155.84,160114,,,A*66
$GPRMC,150901.000,A,3302.1356,S,06053.7499,W,0.42,155.84,160114,,,A*65
$GPRMC,150902.000,A,3302.1357,S,06053.7501,W,0.23,155.84,160114,,,A*60
$GPRMC,150903.000,A,3302.1357,S,06053.7501,W,0.23,155.84,160114,,,A*61
$GPRMC,150904.000,A,3302.1356,S,06053.7502,W,0.32,155.84,160114,,,A*64
$GPRMC,150905.000,A,3302.1356,S,06053.7503,W,0.58,299.89,160114,,,A*66
$GPRMC,150906.000,A,3302.1355,S,06053.7505,W,0.59,297.80,160114,,,A*66
$GPRMC,150907.000,A,3302.1356,S,06053.7507,W,0.37,297.80,160114,,,A*6E
$GPRMC,150908.000,A,3302.1352,S,06053.7509,W,0.38,297.80,160114,,,A*64
$GPRMC,150909.000,A,3302.1352,S,06053.7507,W,0.32,297.80,160114,,,A*61
$GPRMC,150910.000,A,3302.1352,S,06053.7504,W,0.32,297.80,160114,,,A*6A
$GPRMC,150911.000,A,3302.1351,S,06053.7503,W,0.21,297.80,160114,,,A*6D
$GPRMC,150912.000,A,3302.1350,S,06053.7503,W,1.17,289.39,160114,,,A*66
$GPRMC,150913.000,A,3302.1353,S,06053.7495,W,0.83,284.84,160114,,,A*6D
$GPRMC,150914.000,A,3302.1354,S,06053.7493,W,0.83,285.53,160114,,,A*60
$GPRMC,150915.000,A,3302.1351,S,06053.7492,W,0.91,313.92,160114,,,A*65
$GPRMC,150916.000,A,3302.1350,S,06053.7494,W,0.93,313.33,160114,,,A*68
$GPRMC,150917.000,A,3302.1350,S,06053.7493,W,0.59,312.43,160114,,,A*6E
$GPRMC,150918.000,A,3302.1350,S,06053.7493,W,0.40,312.43,160114,,,A*69
$GPRMC,150919.000,A,3302.1353,S,06053.7498,W,0.68,261.65,160114,,,A*6B
$GPRMC,150920.000,A,3302.1355,S,06053.7503,W,0.84,247.66,160114,,,A*61
$GPRMC,150921.000,A,3302.1356,S,06053.7503,W,0.41,247.66,160114,,,A*6A
$GPRMC,150922.000,A,3302.1358,S,06053.7503,W,0.38,247.66,160114,,,A*69
$GPRMC,150923.000,A,3302.1359,S,06053.7501,W,0.38,247.66,160114,,,A*6B
$GPRMC,150924.000,A,3302.1361,S,06053.7500,W,0.46,247.66,160114,,,A*6F
$GPRMC,150925.000,A,3302.1362,S,06053.7500,W,0.50,247.66,160114,,,A*6A
$GPRMC,150926.000,A,3302.1363,S,06053.7499,W,0.46,247.66,160114,,,A*6E
$GPRMC,150927.000,A,3302.1364,S,06053.7498,W,0.21,247.66,160114,,,A*68
$GPRMC,150928.000,A,3302.1365,S,06053.7498,W,0.31,247.66,160114,,,A*67
$GPRMC,150929.000,A,3302.1365,S,06053.7497,W,0.15,247.66,160114,,,A*6F
$GPRMC,150930.000,A,3302.1364,S,06053.7497,W,0.56,247.66,160114,,,A*61
$GPRMC,150931.000,A,3302.1363,S,06053.7497,W,0.77,340.14,160114,,,A*67
$GPRMC,150932.000,A,3302.1360,S,06053.7497,W,0.81,353.10,160114,,,A*68
$GPRMC,150933.000,A,3302.1355,S,06053.7497,W,1.09,356.49,160114,,,A*67
$GPRMC,150934.000,A,3302.1350,S,06053.7498,W,1.27,355.27,160114,,,A*6D
$GPRMC,150935.000,A,3302.1345,S,06053.7500,W,1.33,347.40,160114,,,A*6F
$GPRMC,150936.000,A,3302.1333,S,06053.7502,W,2.20,348.53,160114,,,A*63
$GPRMC,150937.000,A,3302.1327,S,06053.7504,W,2.16,347.34,160114,,,A*6A
$GPRMC,150938.000,A,3302.1321,S,06053.7508,W,1.95,336.08,160114,,,A*6E
$GPRMC,150939.000,A,3302.1316,S,06053.7514,W,1.88,325.61,160114,,,A*67
$GPRMC,150940.000,A,3302.1313,S,06053.7519,W,1.31,319.13,160114,,,A*69
$GPRMC,150941.000,A,3302.1307,S,06053.7524,W,1.28,320.62,160114,,,A*67
$GPRMC,150942.000,A,3302.1304,S,06053.7524,W,0.78,322.92,160114,,,A*6E
$GPRMC,150943.000,A,3302.1302,S,06053.7524,W,0.70,349.47,160114,,,A*64
$GPRMC,150944.000,A,3302.1301,S,06053.7525,W,0.39,349.47,160114,,,A*6C
$GPRMC,150945.000,A,3302.1299,S,06053.7524,W,0.35,349.47,160114,,,A*60
$GPRMC,150946.000,A,3302.1297,S,06053.7523,W,0.37,349.47,160114,,,A*68
$GPRMC,150947.000,A,3302.1294,S,06053.7522,W,0.65,30.97,160114,,,A*5C
$GPRMC,150948.000,A,3302.1292,S,06053.7523,W,0.64,30.04,160114,,,A*5F
$GPRMC,150949.000,A,3302.1291,S,06053.7523,W,0.47,30.04,160114,,,A*5C
$GPRMC,150950.000,A,3302.1290,S,06053.7523,W,0.43,30.04,160114,,,A*51
$GPRMC,150951.000,A,3302.1289,S,06053.7522,W,0.40,30.04,160114,,,A*5A
$GPRMC,150952.000,A,3302.1291,S,06053.7523,W,0.14,30.04,160114,,,A*50
$GPRMC,150953.000,A,3302.1290,S,06053.7523,W,0.14,30.04,160114,,,A*50
$GPRMC,150954.000,A,3302.1290,S,06053.7524,W,0.39,30.04,160114,,,A*5F
$GPRMC,150955.000,A,3302.1289,S,06053.7524,W,0.55,30.04,160114,,,A*5C
$GPRMC,150956.000,A,3302.1288,S,06053.7525,W,0.41,30.04,160114,,,A*5A
$GPRMC,150957.000,A,3302.1287,S,06053.7525,W,0.21,30.04,160114,,,A*52
$GPRMC,150958.000,A,3302.1287,S,06053.7524,W,0.39,30.04,160114,,,A*55
$GPRMC,150959.000,A,3302.1287,S,06053.7523,W,0.52,30.04,160114,,,A*5E
$GPRMC,151000.000,A,3302.1288,S,06053.7522,W,0.87,130.56,160114,,,A*6A
$GPRMC,151001.000,A,3302.1291,S,06053.7518,W,0.89,135.13,160114,,,A*60
$GPRMC,151002.000,A,3302.1294,S,06053.7516,W,0.87,137.27,160114,,,A*63
$GPRMC,151003.000,A,3302.1297,S,06053.7512,W,0.91,138.07,160114,,,A*6F
$GPRMC,151004.000,A,3302.1299,S,06053.7510,W,0.93,139.72,160114,,,A*65
$GPRMC,151005.000,A,3302.1300,S,06053.7508,W,0.90,141.29,160114,,,A*6E
$GPRMC,151006.000,A,3302.1302,S,06053.7506,W,0.87,156.19,160114,,,A*62
$GPRMC,151007.000,A,3302.1303,S,06053.7505,W,0.63,166.28,160114,,,A*6A
$GPRMC,151008.000,A,3302.1304,S,06053.7502,W,0.64,134.00,160114,,,A*6F
$GPRMC,151009.000,A,3302.1306,S,06053.7500,W,0.64,129.15,160114,,,A*66
$GPRMC,151010.000,A,3302.1307,S,06053.7497,W,0.64,122.32,160114,,,A*6E
$GPRMC,151011.000,A,3302.1303,S,06053.7496,W,0.48,122.32,160114,,,A*64
$GPRMC,151012.000,A,3302.1303,S,06053.7496,W,0.49,122.32,160114,,,A*66
$GPRMC,151013.000,A,3302.1302,S,06053.7497,W,0.54,333.46,160114,,,A*6A
$GPRMC,151014.000,A,3302.1302,S,06053.7499,W,0.90,332.79,160114,,,A*66
$GPRMC,151015.000,A,3302.1302,S,06053.7502,W,0.92,331.51,160114,,,A*6F
$GPRMC,151016.000,A,3302.1301,S,06053.7503,W,0.73,330.82,160114,,,A*6E
$GPRMC,151017.000,A,3302.1301,S,06053.7502,W,0.55,330.82,160114,,,A*6A
$GPRMC,151018.000,A,3302.1303,S,06053.7501,W,0.33,330.82,160114,,,A*64
$GPRMC,151019.000,A,3302.1303,S,06053.7499,W,0.40,330.41,160114,,,A*6E
$GPRMC,151020.000,A,3302.1299,S,06053.7496,W,1.15,31.34,160114,,,A*58
$GPRMC,151021.000,A,3302.1299,S,06053.7493,W,1.13,32.56,160114,,,A*5D
$GPRMC,151022.000,A,3302.1301,S,06053.7493,W,0.64,35.57,160114,,,A*59
$GPRMC,151023.000,A,3302.1301,S,06053.7492,W,0.58,35.57,160114,,,A*56
$GPRMC,151024.000,A,3302.1302,S,06053.7490,W,0.55,35.57,160114,,,A*5D
$GPRMC,151025.000,A,3302.1306,S,06053.7491,W,0.49,35.57,160114,,,A*54
$GPRMC,151026.000,A,3302.1309,S,06053.7493,W,0.68,198.32,160114,,,A*6C
$GPRMC,151027.000,A,3302.1312,S,06053.7493,W,0.74,196.04,160114,,,A*61
$GPRMC,151028.000,A,3302.1314,S,06053.7494,W,0.81,196.87,160114,,,A*6E
$GPRMC,151029.000,A,3302.1317,S,06053.7494,W,0.86,194.70,160114,,,A*61
$GPRMC,151030.000,A,3302.1320,S,06053.7498,W,1.05,209.33,160114,,,A*6B
$GPRMC,151031.000,A,3302.1323,S,06053.7498,W,1.07,206.35,160114,,,A*62
$GPRMC,151032.000,A,3302.1326,S,06053.7499,W,0.91,205.41,160114,,,A*6B
$GPRMC,151033.000,A,3302.1328,S,06053.7500,W,0.91,196.82,160114,,,A*63
$GPRMC,151034.000,A,3302.1334,S,06053.7499,W,1.15,186.89,160114,,,A*6F
$GPRMC,151035.000,A,3302.1334,S,06053.7497,W,0.67,178.45,160114,,,A*65
$GPRMC,151036.000,A,3302.1334,S,06053.7496,W,0.41,178.45,160114,,,A*63
$GPRMC,151037.000,A,3302.1334,S,06053.7496,W,0.36,178.45,160114,,,A*62
$GPRMC,151038.000,A,3302.1334,S,06053.7497,W,0.13,178.45,160114,,,A*6B
$GPRMC,151039.000,A,3302.1334,S,06053.7498,W,0.08,178.45,160114,,,A*6F
$GPRMC,151040.000,A,3302.1334,S,06053.7498,W,0.10,178.45,160114,,,A*68
$GPRMC,151041.000,A,3302.1334,S,06053.7498,W,0.32,178.45,160114,,,A*69
$GPRMC,151042.000,A,3302.1334,S,06053.7499,W,0.32,178.45,160114,,,A*6B
$GPRMC,151043.000,A,3302.1334,S,06053.7499,W,0.35,178.45,160114,,,A*6D
$GPRMC,151044.000,A,3302.1335,S,06053.7499,W,0.41,178.45,160114,,,A*68
$GPRMC,151045.000,A,3302.1336,S,06053.7499,W,0.41,178.45,160114,,,A*6A
$GPRMC,151046.000,A,3302.1337,S,06053.7499,W,0.42,178.45,160114,,,A*6B
$GPRMC,151047.000,A,3302.1339,S,06053.7500,W,0.54,178.45,160114,,,A*62
$GPRMC,151048.000,A,3302.1340,S,06053.7501,W,0.25,178.45,160114,,,A*64
$GPRMC,151049.000,A,3302.1340,S,06053.7501,W,0.13,178.45,160114,,,A*60
$GPRMC,151050.000,A,3302.1341,S,06053.7502,W,0.19,178.45,160114,,,A*60
$GPRMC,151051.000,A,3302.1341,S,06053.7502,W,0.18,178.45,160114,,,A*60
$GPRMC,151052.000,A,3302.1341,S,06053.7503,W,0.05,178.45,160114,,,A*6E
$GPRMC,151053.000,A,3302.1341,S,06053.7502,W,0.39,178.45,160114,,,A*61
$GPRMC,151054.000,A,3302.1341,S,06053.7501,W,0.59,82.22,160114,,,A*56
$GPRMC,151055.000,A,3302.1339,S,06053.7494,W,1.13,79.36,160114,,,A*5B
$GPRMC,151056.000,A,3302.1338,S,06053.7491,W,1.13,78.26,160114,,,A*5C
$GPRMC,151057.000,A,3302.1337,S,06053.7491,W,0.63,76.08,160114,,,A*56
$GPRMC,151058.000,A,3302.1335,S,06053.7490,W,0.62,37.40,160114,,,A*52
$GPRMC,151059.000,A,3302.1334,S,06053.7489,W,0.56,37.40,160114,,,A*5D
$GPRMC,151100.000,A,3302.1333,S,06053.7490,W,0.36,37.40,160114,,,A*59
$GPRMC,151101.000,A,3302.1332,S,06053.7490,W,0.39,37.40,160114,,,A*56
$GPRMC,151102.000,A,3302.1332,S,06053.7492,W,0.38,37.40,160114,,,A*56
$GPRMC,151103.000,A,3302.1332,S,06053.7492,W,0.26,37.40,160114,,,A*58
$GPRMC,151104.000,A,3302.1331,S,06053.7492,W,0.08,37.40,160114,,,A*50
$GPRMC,151105.000,A,3302.1331,S,06053.7492,W,0.19,37.40,160114,,,A*51
$GPRMC,151106.000,A,3302.1331,S,06053.7492,W,0.30,37.40,160114,,,A*59
$GPRMC,151107.000,A,3302.1331,S,06053.7493,W,0.53,37.40,160114,,,A*5C
$GPRMC,151108.000,A,3302.1332,S,06053.7494,W,0.54,37.40,160114,,,A*50
$GPRMC,151109.000,A,3302.1333,S,06053.7496,W,0.50,37.40,160114,,,A*56
$GPRMC,151110.000,A,3302.1333,S,06053.7497,W,0.28,37.40,160114,,,A*50
$GPRMC,151111.000,A,3302.1333,S,06053.7498,W,0.27,37.40,160114,,,A*51
$GPRMC,151112.000,A,3302.1334,S,06053.7499,W,0.30,37.40,160114,,,A*52
$GPRMC,151113.000,A,3302.1334,S,06053.7500,W,0.30,37.40,160114,,,A*52
$GPRMC,151114.000,A,3302.1335,S,06053.7500,W,0.47,37.40,160114,,,A*54
$GPRMC,151115.000,A,3302.1336,S,06053.7500,W,0.48,37.40,160114,,,A*59
$GPRMC,151116.000,A,3302.1338,S,06053.7500,W,0.42,37.40,160114,,,A*5E
$GPRMC,151117.000,A,3302.1339,S,06053.7500,W,0.42,37.40,160114,,,A*5E
$GPRMC,151118.000,A,3302.1340,S,06053.7499,W,0.42,37.40,160114,,,A*5E
$GPRMC,151119.000,A,3302.1341,S,06053.7499,W,0.37,37.40,160114,,,A*5C
$GPRMC,151120.000,A,3302.1342,S,06053.7498,W,0.15,37.40,160114,,,A*54
$GPRMC,151121.000,A,3302.1341,S,06053.7498,W,0.23,37.40,160114,,,A*53
$GPRMC,151122.000,A,3302.1342,S,06053.7497,W,0.16,37.40,160114,,,A*5A
$GPRMC,151123.000,A,3302.1342,S,06053.7497,W,0.47,37.40,160114,,,A*5F
$GPRMC,151124.000,A,3302.1343,S,06053.7498,W,0.61,217.52,160114,,,A*61
$GPRMC,151125.000,A,3302.1345,S,06053.7502,W,0.61,216.53,160114,,,A*64
$GPRMC,151126.000,A,3302.1344,S,06053.7501,W,0.63,213.15,160114,,,A*60
$GPRMC,151127.000,A,3302.1344,S,06053.7499,W,0.56,213.15,160114,,,A*67
$GPRMC,151128.000,A,3302.1344,S,06053.7499,W,0.40,213.15,160114,,,A*6F
$GPRMC,151129.000,A,3302.1342,S,06053.7498,W,0.35,213.15,160114,,,A*6B
$GPRMC,151130.000,A,3302.1342,S,06053.7498,W,0.38,213.15,160114,,,A*6E
$GPRMC,151131.000,A,3302.1342,S,06053.7497,W,0.14,213.15,160114,,,A*6E
$GPRMC,151132.000,A,3302.1342,S,06053.7496,W,0.10,213.15,160114,,,A*68
$GPRMC,151133.000,A,3302.1342,S,06053.7497,W,0.16,213.15,160114,,,A*6E
$GPRMC,151134.000,A,3302.1342,S,06053.7496,W,0.28,213.15,160114,,,A*65
$GPRMC,151135.000,A,3302.1342,S,06053.7495,W,0.29,213.15,160114,,,A*66
$GPRMC,151136.000,A,3302.1342,S,06053.7495,W,0.29,213.15,160114,,,A*65
$GPRMC,151137.000,A,3302.1343,S,06053.7494,W,0.24,213.15,160114,,,A*69
$GPRMC,151138.000,A,3302.1343,S,06053.7493,W,0.22,213.15,160114,,,A*67
$GPRMC,151139.000,A,3302.1344,S,06053.7494,W,0.25,213.15,160114,,,A*61
$GPRMC,151140.000,A,3302.1344,S,06053.7494,W,0.24,213.15,160114,,,A*6E
$GPRMC,151141.000,A,3302.1345,S,06053.7495,W,0.41,213.15,160114,,,A*6C
$GPRMC,151142.000,A,3302.1346,S,06053.7495,W,0.25,213.15,160114,,,A*6E
$GPRMC,151143.000,A,3302.1346,S,06053.7494,W,0.21,213.15,160114,,,A*6A
$GPRMC,151144.000,A,3302.1345,S,06053.7494,W,0.06,213.15,160114,,,A*6B
$GPRMC,151145.000,A,3302.1345,S,06053.7493,W,0.14,213.15,160114,,,A*6E
$GPRMC,151146.000,A,3302.1345,S,06053.7493,W,0.64,308.09,160114,,,A*6C
$GPRMC,151147.000,A,3302.1343,S,06053.7496,W,0.62,342.45,160114,,,A*6E
$GPRMC,151148.000,A,3302.1341,S,06053.7496,W,0.89,21.84,160114,,,A*5D
$GPRMC,151149.000,A,3302.1334,S,06053.7499,W,1.85,19.91,160114,,,A*53
$GPRMC,151150.000,A,3302.1334,S,06053.7499,W,1.21,358.31,160114,,,A*69
$GPRMC,151151.000,A,3302.1336,S,06053.7498,W,0.41,358.31,160114,,,A*6C
$GPRMC,151152.000,A,3302.1335,S,06053.7499,W,0.40,358.31,160114,,,A*6C
$GPRMC,151153.000,A,3302.1335,S,06053.7497,W,0.70,59.42,160114,,,A*56
$GPRMC,151154.000,A,3302.1333,S,06053.7500,W,0.53,59.42,160114,,,A*59
$GPRMC,151155.000,A,3302.1335,S,06053.7499,W,0.29,59.42,160114,,,A*52
$GPRMC,151156.000,A,3302.1337,S,06053.7496,W,0.61,63.31,160114,,,A*5D
$GPRMC,151157.000,A,3302.1338,S,06053.7496,W,0.09,63.31,160114,,,A*5D
$GPRMC,151158.000,A,3302.1338,S,06053.7497,W,0.48,63.31,160114,,,A*56
$GPRMC,151159.000,A,3302.1339,S,06053.7498,W,0.73,282.79,160114,,,A*60
$GPRMC,151200.000,A,3302.1337,S,06053.7500,W,0.80,285.35,160114,,,A*62
$GPRMC,151201.000,A,3302.1333,S,06053.7504,W,1.31,289.67,160114,,,A*63
$GPRMC,151202.000,A,3302.1329,S,06053.7506,W,1.57,295.28,160114,,,A*6F
$GPRMC,151203.000,A,3302.1327,S,06053.7506,W,1.24,350.24,160114,,,A*60
$GPRMC,151204.000,A,3302.1323,S,06053.7505,W,1.50,0.17,160114,,,A*65
$GPRMC,151205.000,A,3302.1319,S,06053.7502,W,1.95,1.16,160114,,,A*63
$GPRMC,151206.000,A,3302.1313,S,06053.7500,W,2.43,0.42,160114,,,A*60
$GPRMC,151207.000,A,3302.1312,S,06053.7496,W,1.88,0.82,160114,,,A*66
$GPRMC,151208.000,A,3302.1313,S,06053.7493,W,0.98,351.48,160114,,,A*6C
$GPRMC,151209.000,A,3302.1314,S,06053.7490,W,0.41,351.48,160114,,,A*6D
$GPRMC,151210.000,A,3302.1314,S,06053.7493,W,0.70,344.80,160114,,,A*64
$GPRMC,151211.000,A,3302.1313,S,06053.7492,W,0.73,343.28,160114,,,A*65
$GPRMC,151212.000,A,3302.1309,S,06053.7494,W,1.80,342.50,160114,,,A*68
$GPRMC,151213.000,A,3302.1307,S,06053.7496,W,1.54,341.16,160114,,,A*6D
$GPRMC,151214.000,A,3302.1304,S,06053.7492,W,1.25,356.98,160114,,,A*6B
$GPRMC,151215.000,A,3302.1303,S,06053.7490,W,1.04,17.53,160114,,,A*5D
$GPRMC,151216.000,A,3302.1303,S,06053.7487,W,0.87,35.47,160114,,,A*57
$GPRMC,151217.000,A,3302.1299,S,06053.7487,W,1.50,32.63,160114,,,A*5E
$GPRMC,151218.000,A,3302.1299,S,06053.7484,W,1.25,30.91,160114,,,A*5F
$GPRMC,151219.000,A,3302.1304,S,06053.7482,W,0.44,30.91,160114,,,A*5B
$GPRMC,151220.000,A,3302.1309,S,06053.7480,W,0.80,147.38,160114,,,A*64
$GPRMC,151221.000,A,3302.1313,S,06053.7481,W,1.00,149.86,160114,,,A*6D
$GPRMC,151222.000,A,3302.1318,S,06053.7479,W,1.40,151.36,160114,,,A*64
$GPRMC,151223.000,A,3302.1316,S,06053.7477,W,0.83,150.20,160114,,,A*6D
$GPRMC,151224.000,A,3302.1320,S,06053.7476,W,0.85,151.25,160114,,,A*6C
$GPRMC,151225.000,A,3302.1323,S,06053.7476,W,0.88,152.71,160114,,,A*61
