$GPRMC,145919.053,A,3302.1581,S,06053.7735,W,0.79,89.98,160114,,,A*52
-0.02811,0.33433,-0.95485
0.12527,0.94314,-0.30789,-0.44406,0.33081,0.83269
$GPRMC,145920.054,A,3302.1579,S,06053.7728,W,0.48,89.98,160114,,,A*56
-0.04804,0.35278,-0.91346
0.10094,0.94071,-0.32386,-0.44112,0.33409,0.83295
$GPRMC,145921.056,A,3302.1570,S,06053.7717,W,0.43,89.98,160114,,,A*5B
-0.01937,0.37706,-0.93050
0.08009,0.93350,-0.34952,-0.28488,0.35746,0.88942
$GPRMC,145922.054,A,3302.1566,S,06053.7729,W,0.63,92.28,160114,,,A*53
-0.06945,0.39019,-0.92175
0.07260,0.93174,-0.35579,-0.27485,0.36161,0.89090
$GPRMC,145923.055,A,3302.1570,S,06053.7732,W,0.56,92.28,160114,,,A*58
-0.00672,0.35520,-0.92076
0.09863,0.93487,-0.34103,-0.29043,0.35482,0.88868
$GPRMC,145924.062,A,3302.1549,S,06053.7712,W,0.58,118.95,160114,,,A*68
-0.03784,0.36444,-0.94512
0.09782,0.93822,-0.33194,-0.29815,0.34584,0.88966
$GPRMC,145925.066,A,3302.1539,S,06053.7692,W,0.63,109.35,160114,,,A*61
-0.02520,0.36444,-0.92369
0.08197,0.93633,-0.34141,-0.30384,0.34973,0.88621
$GPRMC,145926.070,A,3302.1530,S,06053.7678,W,0.47,109.35,160114,,,A*6E
-0.01936,0.35278,-0.94901
0.10686,0.93822,-0.32913,-0.30723,0.34598,0.88651
$GPRMC,145927.075,A,3302.1521,S,06053.7664,W,0.34,109.35,160114,,,A*63
-0.02909,0.37901,-0.91103
0.08421,0.93033,-0.35692,-0.28114,0.36582,0.88721
$GPRMC,145928.129,A,3302.1324,S,06053.7438,W,0.07,109.35,160114,,,A*6C
0.00106,0.39940,-0.91784
0.09604,0.92421,-0.36961,-0.25589,0.38177,0.88813
$GPRMC,145930.000,A,3302.1332,S,06053.7451,W,0.09,109.35,160114,,,A*69
-0.05145,0.39406,-0.89642
0.07258,0.92466,-0.37380,-0.26027,0.37936,0.88789
$GPRMC,145931.000,A,3302.1325,S,06053.7456,W,0.07,109.35,160114,,,A*67
-0.01937,0.39309,-0.92856
0.08814,0.92690,-0.36480,-0.25567,0.37501,0.89107
$GPRMC,145932.000,A,3302.1326,S,06053.7455,W,0.10,109.35,160114,,,A*62
-0.03201,0.40232,-0.92369
0.08628,0.92407,-0.37236,-0.25518,0.38178,0.88833
$GPRMC,145933.000,A,3302.1325,S,06053.7458,W,0.16,109.35,160114,,,A*6B
-0.03006,0.37804,-0.92759
0.07537,0.93218,-0.35406,-0.25463,0.36129,0.89701
$GPRMC,145934.000,A,3302.1331,S,06053.7472,W,0.34,109.35,160114,,,A*61
-0.01547,0.34501,-0.95095
0.11989,0.94024,-0.31872,-0.31075,0.34044,0.88743
$GPRMC,145935.000,A,3302.1336,S,06053.7477,W,0.35,109.35,160114,,,A*63
-0.02277,0.35861,-0.94706
0.11308,0.94277,-0.31368,-0.31722,0.33343,0.88780
$GPRMC,145936.000,A,3302.1330,S,06053.7482,W,0.38,109.35,160114,,,A*61
0.02392,0.34306,-0.93536
0.12637,0.94098,-0.31399,-0.31907,0.33826,0.88531
$GPRMC,145937.000,A,3302.1337,S,06053.7479,W,0.51,109.35,160114,,,A*6C
0.05649,0.36734,-0.94753
0.14126,0.93666,-0.32048,-0.31072,0.34931,0.88399
$GPRMC,145938.000,A,3302.1341,S,06053.7478,W,0.57,109.35,160114,,,A*65
0.00689,0.39114,-0.90956
0.10724,0.92762,-0.35780,-0.19408,0.37248,0.90752
$GPRMC,145939.000,A,3302.1345,S,06053.7478,W,0.59,158.43,160114,,,A*6B
0.03461,0.39744,-0.90371
0.10265,0.92466,-0.36670,-0.18501,0.37996,0.90631
$GPRMC,145940.000,A,3302.1348,S,06053.7479,W,0.59,174.24,160114,,,A*66
-0.00770,0.41688,-0.92272
0.11593,0.92409,-0.36418,-0.21470,0.38129,0.89918
$GPRMC,145941.000,A,3302.1351,S,06053.7476,W,0.48,174.24,160114,,,A*60
0.01176,0.33821,-0.96702
0.09371,0.93255,-0.34867,-0.26760,0.36091,0.89338
$GPRMC,145942.000,A,3302.1354,S,06053.7474,W,0.53,174.24,160114,,,A*6E
0.01468,0.35763,-0.93439
0.11665,0.94135,-0.31663,-0.32095,0.33743,0.88495
$GPRMC,145943.000,A,3302.1356,S,06053.7471,W,0.42,174.24,160114,,,A*68
0.00252,0.33967,-0.94608
0.12820,0.94407,-0.30379,-0.33565,0.32955,0.88246
$GPRMC,145944.000,A,3302.1359,S,06053.7473,W,0.56,174.24,160114,,,A*67
-0.01548,0.37998,-0.92758
0.10290,0.93801,-0.33097,-0.27486,0.34660,0.89684
$GPRMC,145945.000,A,3302.1359,S,06053.7473,W,0.37,174.24,160114,,,A*61
-0.00670,0.31003,-0.89640
0.13390,0.93842,-0.31849,-0.24665,0.34283,0.90644
$GPRMC,145946.000,A,3302.1361,S,06053.7474,W,0.44,174.24,160114,,,A*6A
0.03754,0.37413,-0.89883
0.12909,0.93108,-0.34121,-0.23622,0.36306,0.90133
$GPRMC,145947.000,A,3302.1358,S,06053.7475,W,0.35,174.24,160114,,,A*66
0.01516,0.38483,-0.92417
0.12649,0.93084,-0.34284,-0.25744,0.36458,0.89488
$GPRMC,145948.000,A,3302.1357,S,06053.7477,W,0.21,174.24,160114,,,A*61
0.03462,0.33917,-0.94120
0.11734,0.94356,-0.30972,-0.22144,0.32888,0.91804
$GPRMC,145949.000,A,3302.1357,S,06053.7478,W,0.21,174.24,160114,,,A*6F
0.03900,0.38093,-0.88471
0.12460,0.93774,-0.32421,-0.23871,0.34549,0.90755
$GPRMC,145950.000,A,3302.1357,S,06053.7476,W,0.17,174.24,160114,,,A*6C
0.02439,0.44310,-0.91249
0.10655,0.91497,-0.38920,-0.16441,0.40225,0.90065
$GPRMC,145951.000,A,3302.1359,S,06053.7472,W,0.17,174.24,160114,,,A*67
0.00057,0.41784,-0.87694
0.07676,0.91586,-0.39410,-0.19212,0.40144,0.89551
$GPRMC,145952.000,A,3302.1359,S,06053.7472,W,0.16,174.24,160114,,,A*65
-0.02424,0.44505,-0.90812
0.08797,0.91806,-0.38656,-0.19303,0.39642,0.89755
$GPRMC,145953.000,A,3302.1359,S,06053.7472,W,0.15,174.24,160114,,,A*67
-0.03396,0.42320,-0.89350
0.08385,0.91427,-0.39633,-0.21827,0.40492,0.88792
$GPRMC,145954.000,A,3302.1359,S,06053.7473,W,0.07,174.24,160114,,,A*62
-0.00819,0.42805,-0.89739
0.09432,0.91733,-0.38679,-0.22132,0.39812,0.89024
$GPRMC,145955.000,A,3302.1359,S,06053.7473,W,0.15,174.24,160114,,,A*60
-0.01547,0.41785,-0.88522
0.08697,0.91629,-0.39095,-0.20940,0.40048,0.89206
$GPRMC,145956.000,A,3302.1359,S,06053.7472,W,0.22,174.24,160114,,,A*66
-0.03444,0.40766,-0.90081
0.07123,0.92049,-0.38422,-0.21322,0.39035,0.89564
$GPRMC,145957.000,A,3302.1360,S,06053.7471,W,0.15,174.24,160114,,,A*6A
0.00300,0.41882,-0.91346
0.08965,0.91941,-0.38295,-0.21593,0.39329,0.89370
$GPRMC,145958.000,A,3302.1360,S,06053.7471,W,0.08,174.24,160114,,,A*69
-0.02034,0.41057,-0.91249
0.08492,0.92515,-0.36999,-0.22463,0.37955,0.89749
$GPRMC,145959.000,A,3302.1360,S,06053.7471,W,0.19,174.24,160114,,,A*68
-0.02033,0.37609,-0.91395
0.07463,0.93089,-0.35759,-0.23858,0.36484,0.89998
$GPRMC,150000.000,A,3302.1360,S,06053.7470,W,0.28,174.24,160114,,,A*6A
0.01370,0.38725,-0.92952
0.09715,0.93169,-0.35003,-0.24271,0.36325,0.89952
$GPRMC,150001.000,A,3302.1360,S,06053.7469,W,0.18,174.24,160114,,,A*60
-0.02277,0.39018,-0.92856
0.08614,0.93238,-0.35108,-0.24494,0.36139,0.89967
$GPRMC,150002.000,A,3302.1360,S,06053.7469,W,0.08,174.24,160114,,,A*62
-0.03346,0.35861,-0.92076
0.06676,0.93680,-0.34343,-0.25687,0.34874,0.90133
$GPRMC,150003.000,A,3302.1360,S,06053.7469,W,0.02,174.24,160114,,,A*69
-0.02423,0.37609,-0.91882
0.07888,0.93494,-0.34593,-0.26409,0.35422,0.89710
$GPRMC,150004.000,A,3302.1360,S,06053.7469,W,0.15,174.24,160114,,,A*68
-0.03153,0.37901,-0.94025
0.08273,0.93338,-0.34921,-0.25467,0.35858,0.89809
$GPRMC,150005.000,A,3302.1361,S,06053.7469,W,0.29,174.24,160114,,,A*67
-0.06118,0.37173,-0.91785
0.06648,0.93569,-0.34651,-0.27718,0.35093,0.89444
$GPRMC,150006.000,A,3302.1362,S,06053.7469,W,0.34,174.24,160114,,,A*6B
-0.05826,0.34890,-0.92661
0.05554,0.93858,-0.34056,-0.29273,0.34141,0.89317
$GPRMC,150007.000,A,3302.1362,S,06053.7469,W,0.30,174.24,160114,,,A*6E
-0.01644,0.36929,-0.92515
0.07338,0.93639,-0.34320,-0.28908,0.34933,0.89129
$GPRMC,150008.000,A,3302.1363,S,06053.7469,W,0.24,174.24,160114,,,A*65
-0.04076,0.37367,-0.92418
0.07101,0.93576,-0.34541,-0.28384,0.35092,0.89235
$GPRMC,150009.000,A,3302.1364,S,06053.7469,W,0.27,174.24,160114,,,A*60
-0.07188,0.36056,-0.92077
0.05039,0.93637,-0.34738,-0.28962,0.34658,0.89219
$GPRMC,150010.000,A,3302.1365,S,06053.7470,W,0.19,174.24,160114,,,A*6C
-0.04173,0.35764,-0.91882
0.05669,0.93926,-0.33850,-0.30205,0.33929,0.89087
$GPRMC,150011.000,A,3302.1365,S,06053.7470,W,0.23,174.24,160114,,,A*64
-0.04756,0.35764,-0.92807
0.06074,0.93794,-0.34144,-0.29635,0.34360,0.89113
$GPRMC,150012.000,A,3302.1365,S,06053.7471,W,0.28,174.24,160114,,,A*6D
-0.04708,0.36444,-0.93051
0.05557,0.94311,-0.32780,-0.28469,0.32965,0.90016
$GPRMC,150013.000,A,3302.1366,S,06053.7472,W,0.24,174.24,160114,,,A*60
-0.02519,0.35521,-0.91979
0.05535,0.94181,-0.33155,-0.26087,0.33416,0.90569
$GPRMC,150014.000,A,3302.1366,S,06053.7472,W,0.20,174.24,160114,,,A*63
-0.05048,0.35522,-0.92807
0.06023,0.94052,-0.33435,-0.27316,0.33770,0.90075
$GPRMC,150015.000,A,3302.1367,S,06053.7472,W,0.08,174.24,160114,,,A*69
-0.05777,0.34793,-0.91979
0.04487,0.94260,-0.33089,-0.28664,0.32945,0.89961
$GPRMC,150016.000,A,3302.1367,S,06053.7472,W,0.06,174.24,160114,,,A*64
-0.02277,0.38095,-0.91200
0.08476,0.93595,-0.34178,-0.25765,0.35194,0.89987
$GPRMC,150017.000,A,3302.1367,S,06053.7472,W,0.03,174.24,160114,,,A*60
0.05020,0.31099,-0.88859
0.20028,0.93587,-0.28988,-0.40370,0.34842,0.84595
$GPRMC,150018.000,A,3302.1367,S,06053.7472,W,0.07,174.24,160114,,,A*6B
0.03995,0.48291,-0.87402
0.14984,0.90427,-0.39980,-0.21066,0.42428,0.88069
$GPRMC,150019.000,A,3302.1367,S,06053.7472,W,0.07,174.24,160114,,,A*6A
0.00056,0.46253,-0.89642
0.12033,0.90147,-0.41578,-0.21128,0.43248,0.87654
$GPRMC,150020.000,A,3302.1367,S,06053.7472,W,0.17,174.24,160114,,,A*61
0.00251,0.45718,-0.87499
0.11088,0.89988,-0.42181,-0.21340,0.43609,0.87424
$GPRMC,150021.000,A,3302.1366,S,06053.7472,W,0.25,174.24,160114,,,A*60
-0.07089,0.31102,-0.90713
0.13292,0.94231,-0.30720,-0.53803,0.32891,0.77610
$GPRMC,150022.000,A,3302.1366,S,06053.7473,W,0.31,174.24,160114,,,A*67
-0.07333,0.29841,-0.96216
0.12261,0.95087,-0.28428,-0.58470,0.30066,0.75348
$GPRMC,150023.000,A,3302.1366,S,06053.7474,W,0.34,174.24,160114,,,A*64
-0.08111,0.31297,-0.93635
0.12180,0.94725,-0.29644,-0.59016,0.30925,0.74570
$GPRMC,150024.000,A,3302.1365,S,06053.7475,W,0.28,174.24,160114,,,A*6C
-0.06748,0.27800,-0.93050
0.12790,0.94833,-0.29037,-0.57467,0.30948,0.75761
$GPRMC,150025.000,A,3302.1365,S,06053.7476,W,0.31,174.24,160114,,,A*66
-0.07479,0.33240,-0.92272
0.11679,0.93920,-0.32289,-0.49681,0.33676,0.79986
$GPRMC,150026.000,A,3302.1365,S,06053.7477,W,0.46,174.24,160114,,,A*64
-0.02132,0.43291,-0.91298
0.08492,0.92765,-0.36367,-0.35343,0.36930,0.85948
$GPRMC,150027.000,A,3302.1364,S,06053.7478,W,0.35,174.24,160114,,,A*6F
-0.03347,0.40669,-0.89983
0.10083,0.92177,-0.37439,-0.31979,0.38637,0.86513
$GPRMC,150028.000,A,3302.1363,S,06053.7479,W,0.40,174.24,160114,,,A*64
-0.05049,0.40524,-0.92370
0.09777,0.92211,-0.37437,-0.30942,0.38569,0.86920
$GPRMC,150029.000,A,3302.1362,S,06053.7479,W,0.28,174.24,160114,,,A*6A
-0.06508,0.40524,-0.91348
0.08586,0.92449,-0.37141,-0.32016,0.37861,0.86842
$GPRMC,150030.000,A,3302.1362,S,06053.7480,W,0.30,174.24,160114,,,A*6D
-0.04513,0.39649,-0.89350
0.09505,0.92590,-0.36562,-0.32474,0.37603,0.86784
$GPRMC,150031.000,A,3302.1361,S,06053.7481,W,0.23,174.24,160114,,,A*6C
-0.04125,0.39650,-0.92613
0.09832,0.92594,-0.36465,-0.32148,0.37633,0.86892
$GPRMC,150032.000,A,3302.1361,S,06053.7482,W,0.39,174.24,160114,,,A*67
-0.07188,0.39019,-0.90909
0.07875,0.92560,-0.37022,-0.31914,0.37523,0.87026
$GPRMC,150033.000,A,3302.1361,S,06053.7483,W,0.29,174.24,160114,,,A*66
-0.04124,0.38387,-0.91395
0.08699,0.92780,-0.36280,-0.32053,0.37088,0.87161
$GPRMC,150034.000,A,3302.1361,S,06053.7484,W,0.20,174.24,160114,,,A*6F
-0.04709,0.40232,-0.92857
0.09615,0.92463,-0.36852,-0.32094,0.37926,0.86785
$GPRMC,150035.000,A,3302.1360,S,06053.7484,W,0.22,174.24,160114,,,A*6D
-0.05340,0.38581,-0.90519
0.08209,0.92577,-0.36906,-0.31504,0.37542,0.87167
$GPRMC,150036.000,A,3302.1360,S,06053.7484,W,0.24,174.24,160114,,,A*68
-0.04756,0.37998,-0.90957
0.07441,0.92921,-0.36199,-0.32620,0.36570,0.87170
$GPRMC,150037.000,A,3302.1359,S,06053.7485,W,0.23,174.24,160114,,,A*65
-0.03201,0.38095,-0.92418
0.08580,0.92898,-0.36005,-0.31925,0.36796,0.87332
$GPRMC,150038.000,A,3302.1358,S,06053.7485,W,0.16,174.24,160114,,,A*6D
-0.06993,0.37221,-0.90519
0.06881,0.92927,-0.36294,-0.32239,0.36500,0.87341
$GPRMC,150039.000,A,3302.1358,S,06053.7485,W,0.17,174.24,160114,,,A*6D
-0.03104,0.39455,-0.91785
0.08625,0.92773,-0.36315,-0.31584,0.37117,0.87320
$GPRMC,150040.000,A,3302.1358,S,06053.7485,W,0.15,174.24,160114,,,A*61
-0.04611,0.38387,-0.91590
0.07949,0.92693,-0.36672,-0.31178,0.37255,0.87407
$GPRMC,150041.000,A,3302.1357,S,06053.7486,W,0.18,174.24,160114,,,A*61
-0.09182,0.40039,-0.92761
0.06274,0.93079,-0.36014,-0.31505,0.36087,0.87779
$GPRMC,150042.000,A,3302.1357,S,06053.7486,W,0.21,174.24,160114,,,A*68
-0.02616,0.34209,-0.90517
0.08863,0.93116,-0.35367,-0.27945,0.36406,0.88846
$GPRMC,150043.000,A,3302.1357,S,06053.7487,W,0.21,174.24,160114,,,A*68
-0.03006,0.38289,-0.91249
0.08353,0.93088,-0.35564,-0.27089,0.36466,0.89087
$GPRMC,150044.000,A,3302.1357,S,06053.7488,W,0.23,174.24,160114,,,A*62
-0.04075,0.35618,-0.91736
0.07303,0.93629,-0.34356,-0.28059,0.34985,0.89380
$GPRMC,150045.000,A,3302.1358,S,06053.7488,W,0.13,174.24,160114,,,A*6F
-0.02034,0.38678,-0.92612
0.07946,0.93149,-0.35499,-0.27343,0.36282,0.89084
$GPRMC,150046.000,A,3302.1358,S,06053.7489,W,0.13,174.24,160114,,,A*6D
-0.04270,0.37464,-0.92174
0.06686,0.93320,-0.35309,-0.27142,0.35755,0.89358
$GPRMC,150047.000,A,3302.1357,S,06053.7489,W,0.22,174.24,160114,,,A*61
-0.05486,0.35619,-0.93635
0.04339,0.93816,-0.34346,-0.29201,0.34068,0.89368
$GPRMC,150048.000,A,3302.1357,S,06053.7489,W,0.24,174.24,160114,,,A*68
-0.03833,0.37707,-0.94804
0.06512,0.94038,-0.33385,-0.29362,0.33780,0.89425
$GPRMC,150049.000,A,3302.1357,S,06053.7490,W,0.30,174.24,160114,,,A*64
-0.04610,0.34696,-0.92807
0.04969,0.94088,-0.33508,-0.27685,0.33532,0.90051
$GPRMC,150050.000,A,3302.1356,S,06053.7491,W,0.24,174.24,160114,,,A*69
-0.04416,0.36250,-0.93051
0.04981,0.94124,-0.33405,-0.28235,0.33409,0.89926
$GPRMC,150051.000,A,3302.1355,S,06053.7491,W,0.22,174.24,160114,,,A*6D
-0.07577,0.36542,-0.93149
0.03823,0.93936,-0.34079,-0.27337,0.33786,0.90062
$GPRMC,150052.000,A,3302.1355,S,06053.7490,W,0.22,174.24,160114,,,A*6F
-0.08549,0.35522,-0.90909
0.01503,0.93930,-0.34278,-0.27481,0.33349,0.90181
$GPRMC,150053.000,A,3302.1355,S,06053.7490,W,0.06,174.24,160114,,,A*68
-0.07382,0.37513,-0.92370
0.02195,0.94161,-0.33598,-0.26023,0.32986,0.90746
$GPRMC,150054.000,A,3302.1355,S,06053.7490,W,0.03,174.24,160114,,,A*6A
-0.06410,0.35085,-0.93733
0.01980,0.94638,-0.32244,-0.21744,0.31886,0.92252
$GPRMC,150055.000,A,3302.1355,S,06053.7490,W,0.08,174.24,160114,,,A*60
-0.09521,0.34600,-0.92078
0.00671,0.94972,-0.31303,-0.22047,0.30674,0.92591
$GPRMC,150056.000,A,3302.1355,S,06053.7490,W,0.18,174.24,160114,,,A*62
-0.05145,0.33870,-0.92612
0.00896,0.95098,-0.30912,-0.22206,0.30331,0.92666
$GPRMC,150057.000,A,3302.1356,S,06053.7489,W,0.26,174.24,160114,,,A*65
-0.04075,0.34405,-0.93684
0.03760,0.94961,-0.31116,-0.23413,0.31109,0.92109
$GPRMC,150058.000,A,3302.1356,S,06053.7490,W,0.23,174.24,160114,,,A*67
-0.07479,0.34017,-0.92369
0.01823,0.94695,-0.32086,-0.23280,0.31611,0.91972
$GPRMC,150059.000,A,3302.1357,S,06053.7490,W,0.13,174.24,160114,,,A*64
-0.07284,0.33239,-0.92174
0.00557,0.94721,-0.32055,-0.24511,0.31207,0.91789
$GPRMC,150100.000,A,3302.1358,S,06053.7490,W,0.13,174.24,160114,,,A*66
-0.05485,0.33774,-0.93781
0.03626,0.95020,-0.30951,-0.28026,0.30695,0.90952
$GPRMC,150101.000,A,3302.1358,S,06053.7490,W,0.18,174.24,160114,,,A*6C
-0.05437,0.33579,-0.92758
0.03593,0.94653,-0.32060,-0.26413,0.31839,0.91042
$GPRMC,150102.000,A,3302.1358,S,06053.7491,W,0.37,174.24,160114,,,A*63
-0.08646,0.35182,-0.92272
0.01322,0.94551,-0.32533,-0.25409,0.31786,0.91346
$GPRMC,150103.000,A,3302.1357,S,06053.7492,W,0.55,174.24,160114,,,A*6A
-0.05048,0.33676,-0.92515
0.02463,0.94785,-0.31777,-0.25520,0.31330,0.91472
$GPRMC,150104.000,A,3302.1356,S,06053.7493,W,0.54,174.24,160114,,,A*6C
-0.06945,0.34891,-0.95243
0.03386,0.94837,-0.31535,-0.25829,0.31311,0.91392
$GPRMC,150105.000,A,3302.1356,S,06053.7495,W,0.48,174.24,160114,,,A*66
-0.09376,0.35620,-0.91981
0.02774,0.94041,-0.33892,-0.28721,0.33225,0.89840
$GPRMC,150106.000,A,3302.1355,S,06053.7496,W,0.43,174.24,160114,,,A*6E
-0.07576,0.34599,-0.92759
0.02802,0.94250,-0.33304,-0.28684,0.32674,0.90054
$GPRMC,150107.000,A,3302.1355,S,06053.7497,W,0.45,174.24,160114,,,A*68
-0.06994,0.35183,-0.95292
0.07261,0.94565,-0.31697,-0.33625,0.32241,0.88486
$GPRMC,150108.000,A,3302.1354,S,06053.7499,W,0.53,174.24,160114,,,A*6F
-0.08403,0.32463,-0.93441
0.05658,0.94874,-0.31094,-0.35599,0.31014,0.88152
$GPRMC,150109.000,A,3302.1354,S,06053.7500,W,0.86,299.04,160114,,,A*65
-0.07479,0.33580,-0.93538
0.05717,0.94715,-0.31564,-0.36229,0.31429,0.87748
$GPRMC,150110.000,A,3302.1352,S,06053.7504,W,1.21,302.76,160114,,,A*65
-0.09376,0.33241,-0.95340
0.06855,0.94627,-0.31604,-0.36721,0.31848,0.87392
$GPRMC,150111.000,A,3302.1350,S,06053.7506,W,1.27,304.68,160114,,,A*6B
-0.08937,0.32851,-0.92759
0.05305,0.94731,-0.31588,-0.37088,0.31239,0.87456
$GPRMC,150112.000,A,3302.1349,S,06053.7505,W,1.02,305.21,160114,,,A*68
-0.06604,0.34891,-0.94317
0.06754,0.94697,-0.31413,-0.37104,0.31611,0.87316
$GPRMC,150113.000,A,3302.1348,S,06053.7506,W,0.82,313.36,160114,,,A*63
-0.07722,0.33337,-0.94999
0.07192,0.94604,-0.31597,-0.37012,0.31948,0.87232
$GPRMC,150114.000,A,3302.1348,S,06053.7508,W,0.77,310.66,160114,,,A*66
-0.07819,0.32948,-0.92856
0.04871,0.94675,-0.31826,-0.36633,0.31337,0.87613
$GPRMC,150115.000,A,3302.1348,S,06053.7509,W,0.57,310.66,160114,,,A*64
-0.06750,0.33628,-0.93538
0.06591,0.94662,-0.31555,-0.37438,0.31660,0.87155
$GPRMC,150116.000,A,3302.1349,S,06053.7510,W,0.59,299.28,160114,,,A*6A
-0.07479,0.33240,-0.93830
0.07281,0.94596,-0.31602,-0.36539,0.32013,0.87408
$GPRMC,150117.000,A,3302.1350,S,06053.7511,W,0.81,289.21,160114,,,A*6F
-0.07381,0.32025,-0.92272
0.05331,0.94778,-0.31445,-0.37031,0.31121,0.87523
$GPRMC,150118.000,A,3302.1353,S,06053.7510,W,0.75,285.23,160114,,,A*67
-0.04513,0.33530,-0.93732
0.06929,0.94656,-0.31500,-0.37310,0.31743,0.87180
$GPRMC,150119.000,A,3302.1354,S,06053.7511,W,0.77,288.02,160114,,,A*6C
-0.07284,0.32414,-0.93148
0.06042,0.94773,-0.31330,-0.36069,0.31339,0.87846
$GPRMC,150120.000,A,3302.1354,S,06053.7511,W,0.71,301.16,160114,,,A*65
-0.07042,0.34308,-0.94707
0.06608,0.94694,-0.31454,-0.36418,0.31637,0.87594
$GPRMC,150121.000,A,3302.1356,S,06053.7511,W,0.51,301.16,160114,,,A*64
-0.06992,0.31103,-0.92710
0.03740,0.95300,-0.30066,-0.34056,0.29502,0.89274
$GPRMC,150122.000,A,3302.1355,S,06053.7512,W,0.50,301.16,160114,,,A*66
-0.05145,0.33433,-0.93489
0.05732,0.95186,-0.30113,-0.34263,0.30206,0.88959
$GPRMC,150123.000,A,3302.1356,S,06053.7512,W,0.47,301.16,160114,,,A*62
-0.06506,0.32657,-0.93732
0.06503,0.94821,-0.31093,-0.35175,0.31337,0.88209
$GPRMC,150124.000,A,3302.1357,S,06053.7513,W,0.28,301.16,160114,,,A*6C
-0.09959,0.32269,-0.93538
0.04641,0.94943,-0.31053,-0.36126,0.30578,0.88090
$GPRMC,150125.000,A,3302.1356,S,06053.7513,W,0.24,301.16,160114,,,A*60
-0.06847,0.32220,-0.93343
0.04735,0.94950,-0.31017,-0.35961,0.30590,0.88154
$GPRMC,150126.000,A,3302.1356,S,06053.7514,W,0.22,301.16,160114,,,A*62
-0.06994,0.34211,-0.96119
0.06730,0.94746,-0.31272,-0.35719,0.31554,0.87912
$GPRMC,150127.000,A,3302.1356,S,06053.7515,W,0.33,301.16,160114,,,A*62
-0.09716,0.31929,-0.93928
0.04723,0.94846,-0.31336,-0.35140,0.30943,0.88361
$GPRMC,150128.000,A,3302.1355,S,06053.7515,W,0.41,301.16,160114,,,A*6B
-0.05826,0.33434,-0.92953
0.05082,0.94837,-0.31305,-0.35292,0.31029,0.88270
$GPRMC,150129.000,A,3302.1354,S,06053.7516,W,0.41,301.16,160114,,,A*68
-0.07528,0.33823,-0.95876
0.06687,0.94844,-0.30981,-0.35469,0.31282,0.88110
$GPRMC,150130.000,A,3302.1353,S,06053.7516,W,0.41,301.16,160114,,,A*67
-0.10640,0.32415,-0.93928
0.04451,0.94858,-0.31338,-0.35452,0.30827,0.88277
$GPRMC,150131.000,A,3302.1352,S,06053.7516,W,0.50,301.16,160114,,,A*67
-0.07090,0.32851,-0.92515
0.04456,0.94896,-0.31224,-0.35697,0.30704,0.88221
$GPRMC,150132.000,A,3302.1350,S,06053.7517,W,0.55,301.16,160114,,,A*62
-0.08111,0.32317,-0.93830
0.05660,0.94830,-0.31228,-0.35771,0.31127,0.88043
$GPRMC,150133.000,A,3302.1349,S,06053.7517,W,0.71,331.73,160114,,,A*6D
-0.08354,0.31734,-0.92759
0.02936,0.94961,-0.31205,-0.35309,0.30191,0.88554
$GPRMC,150134.000,A,3302.1348,S,06053.7519,W,0.75,316.63,160114,,,A*65
-0.05680,0.33045,-0.93245
0.05219,0.94918,-0.31037,-0.35372,0.30821,0.88311
$GPRMC,150135.000,A,3302.1346,S,06053.7518,W,0.79,317.38,160114,,,A*68
-0.05777,0.32851,-0.93781
0.06444,0.94892,-0.30887,-0.35869,0.31086,0.88018
$GPRMC,150136.000,A,3302.1343,S,06053.7519,W,0.84,318.65,160114,,,A*6A
-0.06797,0.31102,-0.92515
0.04291,0.94964,-0.31039,-0.35491,0.30490,0.88378
$GPRMC,150137.000,A,3302.1342,S,06053.7518,W,0.82,335.37,160114,,,A*65
-0.04853,0.32656,-0.94219
0.05779,0.94792,-0.31324,-0.35713,0.31262,0.88018
$GPRMC,150138.000,A,3302.1342,S,06053.7517,W,0.55,335.37,160114,,,A*6F
-0.07284,0.32511,-0.93440
0.05753,0.94837,-0.31192,-0.35146,0.31167,0.88280
$GPRMC,150139.000,A,3302.1342,S,06053.7517,W,0.36,335.37,160114,,,A*6B
-0.10396,0.30278,-0.92856
0.03621,0.94903,-0.31311,-0.35775,0.30487,0.88265
$GPRMC,150140.000,A,3302.1340,S,06053.7517,W,0.35,335.37,160114,,,A*64
-0.06361,0.33968,-0.95486
0.05691,0.94815,-0.31270,-0.35862,0.31172,0.87990
$GPRMC,150141.000,A,3302.1342,S,06053.7516,W,0.17,335.37,160114,,,A*66
-0.09618,0.32560,-0.93879
0.05286,0.94732,-0.31589,-0.35192,0.31371,0.88189
$GPRMC,150142.000,A,3302.1341,S,06053.7516,W,0.19,335.37,160114,,,A*68
-0.11418,0.33726,-0.93344
0.03846,0.94793,-0.31614,-0.35974,0.30830,0.88065
$GPRMC,150143.000,A,3302.1341,S,06053.7517,W,0.07,335.37,160114,,,A*67
-0.06702,0.33726,-0.97044
0.06306,0.94934,-0.30786,-0.35915,0.30939,0.88050
$GPRMC,150144.000,A,3302.1341,S,06053.7517,W,0.19,335.37,160114,,,A*6F
-0.07478,0.30714,-0.92953
0.05680,0.94528,-0.32128,-0.35996,0.31955,0.87654
$GPRMC,150145.000,A,3302.1342,S,06053.7517,W,0.30,335.37,160114,,,A*66
-0.09521,0.32220,-0.93636
0.04386,0.94894,-0.31240,-0.36617,0.30621,0.87872
$GPRMC,150146.000,A,3302.1342,S,06053.7516,W,0.25,335.37,160114,,,A*60
-0.03881,0.33433,-0.95047
0.07413,0.94773,-0.31034,-0.36310,0.31548,0.87671
$GPRMC,150147.000,A,3302.1343,S,06053.7516,W,0.13,335.37,160114,,,A*65
-0.07284,0.31977,-0.92418
0.05590,0.94661,-0.31751,-0.36209,0.31558,0.87710
$GPRMC,150148.000,A,3302.1343,S,06053.7516,W,0.06,335.37,160114,,,A*6E
-0.09181,0.32317,-0.93149
0.03928,0.94975,-0.31052,-0.36517,0.30291,0.88028
$GPRMC,150149.000,A,3302.1344,S,06053.7516,W,0.07,335.37,160114,,,A*69
-0.05777,0.34211,-0.93635
0.06403,0.94706,-0.31461,-0.36894,0.31539,0.87431
$GPRMC,150150.000,A,3302.1344,S,06053.7516,W,0.08,335.37,160114,,,A*6E
-0.06847,0.32851,-0.94122
0.06983,0.94745,-0.31220,-0.36677,0.31543,0.87521
$GPRMC,150151.000,A,3302.1344,S,06053.7516,W,0.14,335.37,160114,,,A*62
-0.06993,0.36736,-0.90811
0.06889,0.94338,-0.32447,-0.34126,0.32791,0.88092
$GPRMC,150152.000,A,3302.1343,S,06053.7516,W,0.17,335.37,160114,,,A*65
-0.03881,0.34793,-0.93245
0.06811,0.94149,-0.33007,-0.33117,0.33342,0.88270
$GPRMC,150153.000,A,3302.1343,S,06053.7517,W,0.15,335.37,160114,,,A*67
-0.03881,0.37318,-0.92418
0.08035,0.93871,-0.33522,-0.32559,0.34258,0.88127
$GPRMC,150154.000,A,3302.1343,S,06053.7517,W,0.26,335.37,160114,,,A*60
-0.06556,0.38921,-0.91104
0.08030,0.93188,-0.35376,-0.31001,0.36065,0.87967
$GPRMC,150155.000,A,3302.1343,S,06053.7518,W,0.31,335.37,160114,,,A*68
-0.07042,0.36056,-0.91980
0.06025,0.93770,-0.34218,-0.31926,0.34290,0.88346
$GPRMC,150156.000,A,3302.1343,S,06053.7519,W,0.25,335.37,160114,,,A*6F
-0.05242,0.36056,-0.91980
0.06353,0.93797,-0.34084,-0.31946,0.34267,0.88347
$GPRMC,150157.000,A,3302.1344,S,06053.7519,W,0.36,335.37,160114,,,A*6B
-0.06750,0.36834,-0.93733
0.07323,0.93773,-0.33956,-0.31186,0.34493,0.88531
$GPRMC,150158.000,A,3302.1344,S,06053.7520,W,0.44,335.37,160114,,,A*6B
-0.06944,0.36445,-0.91347
0.05557,0.93601,-0.34756,-0.30230,0.34753,0.88760
$GPRMC,150159.000,A,3302.1345,S,06053.7522,W,0.50,335.37,160114,,,A*6C
-0.08549,0.37902,-0.91981
0.02881,0.93627,-0.35010,-0.28560,0.34336,0.89473
$GPRMC,150200.000,A,3302.1346,S,06053.7523,W,0.51,335.37,160114,,,A*60
-0.03880,0.35520,-0.87791
0.03560,0.94244,-0.33248,-0.23843,0.33109,0.91298
$GPRMC,150201.000,A,3302.1346,S,06053.7525,W,0.45,335.37,160114,,,A*62
-0.06117,0.34987,-0.90908
0.02180,0.94071,-0.33850,-0.24384,0.33336,0.91072
$GPRMC,150202.000,A,3302.1346,S,06053.7526,W,0.18,335.37,160114,,,A*6A
-0.02325,0.38192,-0.91054
0.05052,0.93867,-0.34110,-0.24039,0.34292,0.90808
$GPRMC,150203.000,A,3302.1346,S,06053.7526,W,0.17,335.37,160114,,,A*64
-0.06993,0.36930,-0.91201
0.02368,0.93520,-0.35333,-0.20365,0.35054,0.91414
$GPRMC,150204.000,A,3302.1346,S,06053.7526,W,0.10,335.37,160114,,,A*64
0.01322,0.35423,-0.94510
0.05453,0.94935,-0.30944,-0.17820,0.31418,0.93249
$GPRMC,150205.000,A,3302.1346,S,06053.7526,W,0.11,335.37,160114,,,A*64
0.05456,0.35761,-0.89444
0.11673,0.94917,-0.29232,-0.19802,0.31067,0.92966
$GPRMC,150206.000,A,3302.1345,S,06053.7526,W,0.36,335.37,160114,,,A*61
0.05892,0.35616,-0.94412
0.13401,0.94415,-0.30104,-0.20708,0.32375,0.92320
$GPRMC,150207.000,A,3302.1345,S,06053.7525,W,0.34,335.37,160114,,,A*61
0.04191,0.35520,-0.94169
0.14359,0.94047,-0.30805,-0.20746,0.33297,0.91983
$GPRMC,150208.000,A,3302.1344,S,06053.7525,W,0.38,335.37,160114,,,A*63
0.06572,0.27556,-1.05758
0.16725,0.94637,-0.27643,-0.26137,0.31291,0.91311
$GPRMC,150209.000,A,3302.1343,S,06053.7525,W,0.41,335.37,160114,,,A*6B
0.06962,0.34790,-0.93924
0.14961,0.94373,-0.29495,-0.24116,0.32412,0.91476
$GPRMC,150210.000,A,3302.1342,S,06053.7525,W,0.38,335.37,160114,,,A*6C
-0.01452,0.52081,-0.87647
0.13539,0.93661,-0.32315,-0.18689,0.34444,0.92002
$GPRMC,150211.000,A,3302.1341,S,06053.7525,W,0.30,335.37,160114,,,A*66
0.05358,0.36538,-0.90175
0.12193,0.93222,-0.34072,-0.15578,0.35700,0.92102
$GPRMC,150212.000,A,3302.1340,S,06053.7526,W,0.05,335.37,160114,,,A*61
0.08761,0.37412,-0.92512
0.14890,0.93442,-0.32356,-0.18373,0.34765,0.91945
$GPRMC,150213.000,A,3302.1340,S,06053.7526,W,0.09,335.37,160114,,,A*6C
0.04385,0.37899,-0.93439
0.15377,0.93095,-0.33118,-0.20920,0.35824,0.90989
$GPRMC,150214.000,A,3302.1340,S,06053.7525,W,0.19,335.37,160114,,,A*69
0.05066,0.37510,-0.91393
0.14115,0.93116,-0.33618,-0.21002,0.36001,0.90900
$GPRMC,150215.000,A,3302.1340,S,06053.7525,W,0.24,335.37,160114,,,A*66
0.04190,0.37511,-0.92513
0.13201,0.93392,-0.33223,-0.21690,0.35425,0.90965
$GPRMC,150216.000,A,3302.1340,S,06053.7524,W,0.28,335.37,160114,,,A*68
0.05795,0.39161,-0.92367
0.14939,0.92862,-0.33962,-0.22308,0.36627,0.90337
$GPRMC,150217.000,A,3302.1341,S,06053.7523,W,0.32,335.37,160114,,,A*64
0.04482,0.39113,-0.91247
0.14347,0.92700,-0.34653,-0.22034,0.37128,0.90200
$GPRMC,150218.000,A,3302.1341,S,06053.7523,W,0.36,335.37,160114,,,A*6F
0.03704,0.38676,-0.91783
0.13675,0.92429,-0.35635,-0.22660,0.37938,0.89706
$GPRMC,150219.000,A,3302.1342,S,06053.7522,W,0.44,335.37,160114,,,A*69
0.04627,0.41881,-0.91881
0.14707,0.92148,-0.35952,-0.23068,0.38540,0.89345
$GPRMC,150220.000,A,3302.1343,S,06053.7521,W,0.38,335.37,160114,,,A*6A
0.02343,0.39065,-0.90809
0.12683,0.92518,-0.35770,-0.22270,0.37797,0.89864
$GPRMC,150221.000,A,3302.1344,S,06053.7520,W,0.25,335.37,160114,,,A*61
0.00884,0.39745,-0.91492
0.11302,0.92546,-0.36159,-0.22540,0.37831,0.89782
$GPRMC,150222.000,A,3302.1345,S,06053.7520,W,0.17,335.37,160114,,,A*62
0.04190,0.40910,-0.91783
0.13074,0.92328,-0.36120,-0.22880,0.38259,0.89514
$GPRMC,150223.000,A,3302.1345,S,06053.7519,W,0.29,335.37,160114,,,A*64
0.00592,0.40522,-0.91102
0.11820,0.92392,-0.36387,-0.22336,0.38179,0.89685
$GPRMC,150224.000,A,3302.1345,S,06053.7518,W,0.39,335.37,160114,,,A*63
0.02926,0.39356,-0.91150
0.11587,0.92622,-0.35874,-0.22820,0.37634,0.89794
$GPRMC,150225.000,A,3302.1345,S,06053.7517,W,0.44,335.37,160114,,,A*67
0.00299,0.40911,-0.93343
0.12204,0.92524,-0.35921,-0.22949,0.37841,0.89674
$GPRMC,150226.000,A,3302.1345,S,06053.7515,W,0.53,335.37,160114,,,A*60
-0.03882,0.43340,-0.88718
0.06979,0.91417,-0.39928,-0.20502,0.40486,0.89110
$GPRMC,150227.000,A,3302.1345,S,06053.7514,W,0.58,335.37,160114,,,A*6B
-0.15453,0.38000,-0.87356
-0.05239,0.91691,-0.39563,-0.25707,0.37044,0.89258
$GPRMC,150228.000,A,3302.1345,S,06053.7512,W,0.49,335.37,160114,,,A*62
-0.14823,0.47713,-0.86530
-0.02307,0.89093,-0.45355,-0.25275,0.43373,0.86487
$GPRMC,150229.000,A,3302.1345,S,06053.7510,W,0.40,335.37,160114,,,A*68
-0.16427,0.46548,-0.85361
-0.03642,0.88434,-0.46541,-0.25845,0.44154,0.85921
$GPRMC,150230.000,A,3302.1344,S,06053.7509,W,0.39,335.37,160114,,,A*67
-0.17886,0.46256,-0.85264
-0.04322,0.88424,-0.46502,-0.27364,0.43718,0.85674
$GPRMC,150231.000,A,3302.1344,S,06053.7508,W,0.30,335.37,160114,,,A*6E
-0.16720,0.48199,-0.86238
-0.02944,0.88383,-0.46689,-0.28378,0.44048,0.85173
$GPRMC,150232.000,A,3302.1343,S,06053.7507,W,0.27,335.37,160114,,,A*63
-0.11614,0.42322,-0.92567
0.06334,0.91410,-0.40052,-0.37775,0.39342,0.83817
$GPRMC,150233.000,A,3302.1343,S,06053.7507,W,0.34,335.37,160114,,,A*60
-0.11321,0.40039,-0.91056
0.06827,0.91912,-0.38801,-0.38044,0.38351,0.84154
$GPRMC,150234.000,A,3302.1342,S,06053.7506,W,0.39,335.37,160114,,,A*6A
-0.07286,0.41689,-0.89595
0.07611,0.91725,-0.39097,-0.35464,0.39137,0.84915
$GPRMC,150235.000,A,3302.1342,S,06053.7504,W,0.50,335.37,160114,,,A*66
-0.04757,0.40135,-0.89643
0.08497,0.91213,-0.40099,-0.34233,0.40467,0.84797
$GPRMC,150236.000,A,3302.1342,S,06053.7503,W,0.41,335.37,160114,,,A*62
-0.04222,0.38921,-0.92077
0.10127,0.92804,-0.35844,-0.39741,0.36804,0.84060
$GPRMC,150237.000,A,3302.1342,S,06053.7501,W,0.34,335.37,160114,,,A*63
-0.08742,0.27801,-0.94804
0.08800,0.95509,-0.28295,-0.55085,0.28333,0.78504
$GPRMC,150238.000,A,3302.1343,S,06053.7501,W,0.38,335.37,160114,,,A*61
-0.07819,0.29258,-0.95972
0.10751,0.95397,-0.27997,-0.54668,0.29193,0.78481
$GPRMC,150239.000,A,3302.1343,S,06053.7499,W,0.35,335.37,160114,,,A*6D
-0.07576,0.28384,-0.96411
0.10530,0.95486,-0.27777,-0.53569,0.28980,0.79313
$GPRMC,150240.000,A,3302.1343,S,06053.7498,W,0.43,335.37,160114,,,A*63
-0.07964,0.29306,-0.93537
0.08797,0.94892,-0.30299,-0.50120,0.30503,0.80979
$GPRMC,150241.000,A,3302.1344,S,06053.7497,W,0.71,115.94,160114,,,A*62
-0.07285,0.37805,-0.91883
0.08543,0.93188,-0.35256,-0.38959,0.35692,0.84901
$GPRMC,150242.000,A,3302.1344,S,06053.7495,W,0.38,115.94,160114,,,A*6E
-0.05389,0.37999,-0.92662
0.09575,0.93123,-0.35163,-0.38074,0.36066,0.85145
$GPRMC,150243.000,A,3302.1344,S,06053.7495,W,0.06,115.94,160114,,,A*62
-0.07528,0.37562,-0.91883
0.08352,0.93080,-0.35585,-0.38130,0.35977,0.85157
$GPRMC,150244.000,A,3302.1343,S,06053.7495,W,0.09,115.94,160114,,,A*6D
-0.07771,0.35668,-0.91590
0.07329,0.93339,-0.35130,-0.38681,0.35128,0.85263
$GPRMC,150245.000,A,3302.1345,S,06053.7495,W,0.16,115.94,160114,,,A*64
-0.05048,0.35182,-0.93343
0.09157,0.94139,-0.32466,-0.40404,0.33311,0.85193
$GPRMC,150246.000,A,3302.1346,S,06053.7495,W,0.13,115.94,160114,,,A*61
-0.07090,0.32948,-0.92466
0.08239,0.94301,-0.32242,-0.40917,0.32700,0.85185
$GPRMC,150247.000,A,3302.1346,S,06053.7494,W,0.13,115.94,160114,,,A*61
-0.08354,0.33531,-0.93879
0.07352,0.94632,-0.31477,-0.41496,0.31603,0.85319
$GPRMC,150248.000,A,3302.1346,S,06053.7494,W,0.09,115.94,160114,,,A*65
-0.03444,0.37804,-0.93538
0.09360,0.93477,-0.34271,-0.34461,0.35336,0.86970
$GPRMC,150249.000,A,3302.1346,S,06053.7494,W,0.08,115.94,160114,,,A*65
-0.03104,0.37318,-0.93635
0.09664,0.93637,-0.33745,-0.31779,0.35032,0.88107
$GPRMC,150250.000,A,3302.1346,S,06053.7494,W,0.07,115.94,160114,,,A*62
-0.04853,0.35279,-0.91492
0.09044,0.93682,-0.33792,-0.32378,0.34854,0.87959
$GPRMC,150251.000,A,3302.1346,S,06053.7493,W,0.10,115.94,160114,,,A*62
-0.00378,0.28964,-0.92415
0.14319,0.95700,-0.25230,-0.45869,0.29006,0.83992
$GPRMC,150252.000,A,3302.1346,S,06053.7493,W,0.10,115.94,160114,,,A*61
-0.02275,0.24060,-0.98016
0.12644,0.97104,-0.20272,-0.64398,0.23580,0.72780
$GPRMC,150253.000,A,3302.1346,S,06053.7493,W,0.10,115.94,160114,,,A*60
-0.00913,0.22360,-0.98794
0.14410,0.96986,-0.19648,-0.64399,0.24266,0.72553
$GPRMC,150254.000,A,3302.1346,S,06053.7493,W,0.11,115.94,160114,,,A*66
-0.03539,0.27265,-0.94510
0.15411,0.95934,-0.23646,-0.62019,0.28023,0.73269
$GPRMC,150255.000,A,3302.1346,S,06053.7494,W,0.10,115.94,160114,,,A*61
-0.01450,0.34015,-0.93878
0.16034,0.93849,-0.30582,-0.48517,0.34475,0.80359
$GPRMC,150256.000,A,3302.1345,S,06053.7494,W,0.25,115.94,160114,,,A*67
-0.03056,0.41397,-0.91737
0.14219,0.91644,-0.37406,-0.35549,0.39997,0.84478
$GPRMC,150257.000,A,3302.1345,S,06053.7494,W,0.12,115.94,160114,,,A*62
-0.03882,0.38824,-0.91590
0.12591,0.92348,-0.36240,-0.35968,0.38294,0.85087
$GPRMC,150258.000,A,3302.1344,S,06053.7494,W,0.13,115.94,160114,,,A*6D
-0.02714,0.36055,-0.91687
0.12743,0.93541,-0.32980,-0.39894,0.35277,0.84640
$GPRMC,150259.000,A,3302.1344,S,06053.7494,W,0.14,115.94,160114,,,A*6B
-0.01450,0.36347,-0.94073
0.13943,0.93686,-0.32071,-0.40804,0.34945,0.84343
$GPRMC,150300.000,A,3302.1344,S,06053.7494,W,0.03,115.94,160114,,,A*60
-0.00287,0.51451,-0.95488
0.12759,0.93883,-0.31986,-0.41073,0.34356,0.84455
$GPRMC,150301.000,A,3302.1344,S,06053.7494,W,0.15,115.94,160114,,,A*66
-0.00768,0.34500,-0.90517
0.13808,0.93732,-0.31995,-0.40738,0.34820,0.84427
$GPRMC,150302.000,A,3302.1343,S,06053.7494,W,0.31,115.94,160114,,,A*64
-0.03104,0.38532,-0.93051
0.13139,0.93115,-0.34013,-0.37629,0.36427,0.85189
$GPRMC,150303.000,A,3302.1343,S,06053.7494,W,0.45,115.94,160114,,,A*66
-0.03590,0.37901,-0.91590
0.12305,0.93074,-0.34436,-0.36416,0.36514,0.85678
$GPRMC,150304.000,A,3302.1342,S,06053.7495,W,0.55,115.94,160114,,,A*60
-0.04076,0.37901,-0.91006
0.10371,0.93140,-0.34890,-0.35234,0.36245,0.86284
$GPRMC,150305.000,A,3302.1341,S,06053.7496,W,0.75,318.19,160114,,,A*69
-0.01597,0.38823,-0.93538
0.12645,0.92982,-0.34562,-0.34766,0.36786,0.86245
$GPRMC,150306.000,A,3302.1343,S,06053.7495,W,0.50,318.19,160114,,,A*6C
-0.04514,0.39212,-0.91883
0.11859,0.92647,-0.35720,-0.34219,0.37583,0.86120
$GPRMC,150307.000,A,3302.1343,S,06053.7493,W,0.47,318.19,160114,,,A*6D
-0.01109,0.36443,-0.89056
0.13367,0.92699,-0.35047,-0.35031,0.37501,0.85829
$GPRMC,150308.000,A,3302.1345,S,06053.7493,W,0.48,318.19,160114,,,A*6B
0.04046,0.28381,-0.97674
0.18937,0.95608,-0.22374,-0.50217,0.29011,0.81465
$GPRMC,150309.000,A,3302.1347,S,06053.7492,W,0.47,318.19,160114,,,A*66
0.07499,0.29157,-0.94508
0.22692,0.94805,-0.22295,-0.52848,0.31216,0.78947
$GPRMC,150310.000,A,3302.1350,S,06053.7492,W,0.41,318.19,160114,,,A*6E
0.10706,0.39452,-0.92707
0.21601,0.91360,-0.34449,-0.33094,0.40044,0.85448
$GPRMC,150311.000,A,3302.1350,S,06053.7493,W,0.42,318.19,160114,,,A*6D
0.08274,0.40812,-0.91880
0.21457,0.90873,-0.35801,-0.29775,0.40996,0.86214
$GPRMC,150312.000,A,3302.1349,S,06053.7493,W,0.69,342.74,160114,,,A*6B
0.07108,0.39937,-0.88714
0.20519,0.90808,-0.36509,-0.28684,0.41244,0.86464
$GPRMC,150313.000,A,3302.1349,S,06053.7494,W,0.68,341.98,160114,,,A*6D
0.06135,0.46057,-0.87742
0.24078,0.87737,-0.41502,-0.23049,0.46705,0.85366
$GPRMC,150314.000,A,3302.1350,S,06053.7493,W,0.61,341.98,160114,,,A*6C
-0.00284,0.26878,-1.04931
0.04739,0.93773,-0.34413,-0.37871,0.33566,0.86250
$GPRMC,150315.000,A,3302.1350,S,06053.7496,W,0.66,314.79,160114,,,A*60
0.22760,0.39355,-1.12818
0.31214,0.91943,-0.23921,-0.42874,0.36101,0.82816
$GPRMC,150316.000,A,3302.1349,S,06053.7494,W,0.67,315.41,160114,,,A*62
-0.05582,0.32753,-0.92174
0.10502,0.95352,-0.28242,-0.48075,0.29728,0.82493
$GPRMC,150317.000,A,3302.1350,S,06053.7493,W,0.62,315.41,160114,,,A*69
-0.03101,0.25760,-0.95581
0.12225,0.95966,-0.25320,-0.56260,0.27718,0.77888
$GPRMC,150318.000,A,3302.1348,S,06053.7493,W,0.60,315.41,160114,,,A*6D
-0.04074,0.27266,-0.95143
0.12364,0.95855,-0.25672,-0.59386,0.27873,0.75475
$GPRMC,150319.000,A,3302.1347,S,06053.7493,W,0.57,315.41,160114,,,A*67
-0.09083,0.31880,-0.93343
0.05542,0.94927,-0.30955,-0.40120,0.30507,0.86370
$GPRMC,150320.000,A,3302.1345,S,06053.7494,W,0.57,317.25,160114,,,A*68
-0.07041,0.35959,-0.91444
0.03823,0.93886,-0.34218,-0.25772,0.34011,0.90438
$GPRMC,150321.000,A,3302.1344,S,06053.7496,W,0.57,317.37,160114,,,A*69
-0.05049,0.38193,-0.92516
0.03772,0.93776,-0.34524,-0.24151,0.34380,0.90746
$GPRMC,150322.000,A,3302.1344,S,06053.7497,W,0.54,317.80,160114,,,A*64
-0.05583,0.39552,-0.89545
0.05079,0.93233,-0.35803,-0.22861,0.35983,0.90458
$GPRMC,150323.000,A,3302.1347,S,06053.7494,W,0.16,318.16,160114,,,A*63
0.01712,0.43725,-0.80291
0.19744,0.92478,-0.32526,-0.35139,0.37650,0.85719
$GPRMC,150324.000,A,3302.1349,S,06053.7493,W,0.16,318.37,160114,,,A*6E
0.06427,0.35082,-0.96652
0.24060,0.94079,-0.23880,-0.52971,0.33343,0.77989
$GPRMC,150325.000,A,3302.1350,S,06053.7494,W,0.19,318.37,160114,,,A*6F
0.07205,0.30760,-0.98599
0.22641,0.94542,-0.23433,-0.52490,0.32108,0.78828
$GPRMC,150326.000,A,3302.1349,S,06053.7494,W,0.26,318.37,160114,,,A*68
0.17901,0.46735,-0.91878
0.23764,0.89584,-0.37551,-0.27751,0.43308,0.85757
$GPRMC,150327.000,A,3302.1349,S,06053.7495,W,0.15,318.37,160114,,,A*68
0.01760,0.42852,-0.85356
0.12526,0.90102,-0.41530,-0.19629,0.43283,0.87985
$GPRMC,150328.000,A,3302.1349,S,06053.7495,W,0.11,318.37,160114,,,A*63
-0.19534,0.19255,-0.90811
0.05634,0.95286,-0.29812,-0.38638,0.29614,0.87351
$GPRMC,150329.000,A,3302.1349,S,06053.7496,W,0.16,318.37,160114,,,A*66
0.03072,0.31004,-0.98210
0.19201,0.95509,-0.22569,-0.54739,0.29510,0.78312
$GPRMC,150330.000,A,3302.1349,S,06053.7496,W,0.27,318.37,160114,,,A*6C
0.01323,0.31878,-0.93828
0.16882,0.94529,-0.27915,-0.48283,0.32622,0.81268
$GPRMC,150331.000,A,3302.1348,S,06053.7496,W,0.35,318.37,160114,,,A*6F
-0.00769,0.34987,-0.93634
0.13228,0.93725,-0.32258,-0.38033,0.34853,0.85667
$GPRMC,150332.000,A,3302.1347,S,06053.7497,W,0.44,318.37,160114,,,A*64
-0.04173,0.37998,-0.92272
0.08743,0.93247,-0.35051,-0.29712,0.36025,0.88427
$GPRMC,150333.000,A,3302.1346,S,06053.7497,W,0.22,318.37,160114,,,A*64
-0.03784,0.39309,-0.90519
0.08007,0.93172,-0.35424,-0.30269,0.36133,0.88194
$GPRMC,150334.000,A,3302.1346,S,06053.7498,W,0.30,318.37,160114,,,A*6F
-0.02033,0.37609,-0.91882
0.08890,0.93541,-0.34221,-0.29487,0.35289,0.88799
$GPRMC,150335.000,A,3302.1345,S,06053.7497,W,0.17,318.37,160114,,,A*67
-0.04319,0.37707,-0.92856
0.08931,0.93363,-0.34693,-0.29776,0.35742,0.88521
$GPRMC,150336.000,A,3302.1345,S,06053.7496,W,0.24,318.37,160114,,,A*65
-0.03103,0.38095,-0.91346
0.08875,0.93378,-0.34667,-0.30086,0.35692,0.88436
$GPRMC,150337.000,A,3302.1345,S,06053.7496,W,0.18,318.37,160114,,,A*6B
-0.03492,0.35764,-0.91882
0.08776,0.94093,-0.32703,-0.31334,0.33771,0.88756
$GPRMC,150338.000,A,3302.1345,S,06053.7496,W,0.29,318.37,160114,,,A*66
-0.02374,0.33239,-0.95095
0.10510,0.94991,-0.29431,-0.36113,0.31220,0.87870
$GPRMC,150339.000,A,3302.1346,S,06053.7497,W,0.30,318.37,160114,,,A*6D
-0.02422,0.31199,-0.94803
0.09908,0.95205,-0.28945,-0.36891,0.30530,0.87789
$GPRMC,150340.000,A,3302.1346,S,06053.7498,W,0.36,318.37,160114,,,A*6A
-0.03540,0.29159,-0.94900
0.08108,0.95900,-0.27156,-0.35688,0.28233,0.89046
$GPRMC,150341.000,A,3302.1345,S,06053.7500,W,0.38,318.37,160114,,,A*66
-0.03005,0.30228,-0.94218
0.09820,0.95891,-0.26618,-0.37304,0.28344,0.88346
$GPRMC,150342.000,A,3302.1345,S,06053.7501,W,0.37,318.37,160114,,,A*6B
-0.00574,0.31198,-0.93877
0.13127,0.95813,-0.25446,-0.43780,0.28632,0.85226
$GPRMC,150343.000,A,3302.1345,S,06053.7502,W,0.36,318.37,160114,,,A*68
-0.00573,0.24982,-0.95872
0.14135,0.96278,-0.23039,-0.52647,0.27019,0.80612
$GPRMC,150344.000,A,3302.1344,S,06053.7503,W,0.33,318.37,160114,,,A*6A
-0.01254,0.27508,-0.94802
0.13977,0.96040,-0.24103,-0.53170,0.27815,0.79995
$GPRMC,150345.000,A,3302.1343,S,06053.7503,W,0.33,318.37,160114,,,A*6C
-0.02616,0.30568,-0.93975
0.13358,0.95086,-0.27932,-0.41366,0.30962,0.85617
$GPRMC,150346.000,A,3302.1342,S,06053.7504,W,0.33,318.37,160114,,,A*69
-0.02811,0.33627,-0.93050
0.10467,0.94138,-0.32069,-0.31543,0.33723,0.88700
$GPRMC,150347.000,A,3302.1342,S,06053.7504,W,0.22,318.37,160114,,,A*68
-0.02957,0.35084,-0.93635
0.10146,0.94269,-0.31788,-0.30996,0.33358,0.89031
$GPRMC,150348.000,A,3302.1341,S,06053.7504,W,0.18,318.37,160114,,,A*6D
-0.03444,0.37416,-0.94171
0.11160,0.93961,-0.32355,-0.31054,0.34226,0.88680
$GPRMC,150349.000,A,3302.1341,S,06053.7504,W,0.17,318.37,160114,,,A*63
-0.01012,0.35861,-0.93147
0.10694,0.93877,-0.32753,-0.29365,0.34454,0.89166
$GPRMC,150350.000,A,3302.1340,S,06053.7504,W,0.23,318.37,160114,,,A*6D
-0.01109,0.36152,-0.91881
0.10718,0.93865,-0.32778,-0.29971,0.34485,0.88952
$GPRMC,150351.000,A,3302.1340,S,06053.7504,W,0.07,318.37,160114,,,A*6A
-0.03978,0.36784,-0.91590
0.10029,0.93758,-0.33300,-0.30591,0.34753,0.88636
$GPRMC,150352.000,A,3302.1340,S,06053.7503,W,0.12,318.37,160114,,,A*6A
-0.03200,0.35618,-0.92515
0.09201,0.93998,-0.32859,-0.30689,0.34069,0.88868
$GPRMC,150353.000,A,3302.1340,S,06053.7503,W,0.20,318.37,160114,,,A*6A
-0.02520,0.36784,-0.92417
0.09185,0.93873,-0.33219,-0.30885,0.34400,0.88672
$GPRMC,150354.000,A,3302.1341,S,06053.7503,W,0.21,318.37,160114,,,A*6D
-0.00915,0.37609,-0.92758
0.09766,0.93840,-0.33147,-0.30578,0.34524,0.88730
$GPRMC,150355.000,A,3302.1341,S,06053.7503,W,0.40,318.37,160114,,,A*6B
-0.03298,0.35084,-0.94414
0.09223,0.94367,-0.31779,-0.31381,0.33043,0.89013
$GPRMC,150356.000,A,3302.1342,S,06053.7502,W,0.39,318.37,160114,,,A*64
-0.06215,0.34308,-0.93051
0.08287,0.94461,-0.31756,-0.33151,0.32664,0.88510
$GPRMC,150357.000,A,3302.1343,S,06053.7501,W,0.54,318.37,160114,,,A*6C
-0.06212,0.14251,-0.99476
0.03877,0.95722,-0.28676,-0.32354,0.28354,0.90273
$GPRMC,150358.000,A,3302.1344,S,06053.7499,W,0.67,114.72,160114,,,A*6B
-0.04806,0.37367,-0.94074
0.07981,0.93947,-0.33322,-0.29848,0.34147,0.89124
$GPRMC,150359.000,A,3302.1345,S,06053.7498,W,0.63,112.80,160114,,,A*65
-0.04756,0.37221,-0.91493
0.07125,0.93606,-0.34454,-0.29015,0.34993,0.89071
$GPRMC,150400.000,A,3302.1347,S,06053.7499,W,0.17,112.80,160114,,,A*6E
-0.03540,0.36152,-0.91200
0.06772,0.93931,-0.33632,-0.29199,0.34100,0.89357
$GPRMC,150401.000,A,3302.1348,S,06053.7498,W,0.13,112.80,160114,,,A*65
-0.04514,0.37707,-0.93441
0.07562,0.93818,-0.33779,-0.29422,0.34467,0.89142
$GPRMC,150402.000,A,3302.1349,S,06053.7497,W,0.16,112.80,160114,,,A*6D
-0.06701,0.35716,-0.91980
0.06385,0.93703,-0.34335,-0.29460,0.34642,0.89062
$GPRMC,150403.000,A,3302.1350,S,06053.7496,W,0.19,112.80,160114,,,A*6A
-0.03493,0.39649,-0.91980
0.04962,0.93282,-0.35691,-0.26448,0.35686,0.89593
$GPRMC,150404.000,A,3302.1350,S,06053.7496,W,0.07,112.80,160114,,,A*62
-0.07237,0.37513,-0.93344
0.06947,0.92986,-0.36130,-0.25862,0.36658,0.89372
$GPRMC,150405.000,A,3302.1350,S,06053.7496,W,0.13,112.80,160114,,,A*66
-0.04076,0.37221,-0.91492
0.08799,0.93651,-0.33941,-0.31277,0.34948,0.88320
$GPRMC,150406.000,A,3302.1349,S,06053.7496,W,0.30,112.80,160114,,,A*6C
-0.03444,0.37415,-0.92612
0.08450,0.93692,-0.33919,-0.30245,0.34846,0.88719
$GPRMC,150407.000,A,3302.1349,S,06053.7496,W,0.30,112.80,160114,,,A*6D
-0.04952,0.38096,-0.93441
0.08737,0.93601,-0.34095,-0.30472,0.35097,0.88542
$GPRMC,150408.000,A,3302.1348,S,06053.7497,W,0.38,112.80,160114,,,A*6A
-0.07236,0.37125,-0.91785
0.07908,0.93517,-0.34526,-0.31392,0.35209,0.88175
$GPRMC,150409.000,A,3302.1347,S,06053.7498,W,0.48,112.80,160114,,,A*6C
-0.03784,0.36347,-0.92174
0.08068,0.93818,-0.33663,-0.31106,0.34456,0.88573
$GPRMC,150410.000,A,3302.1347,S,06053.7499,W,0.50,112.80,160114,,,A*6C
-0.02715,0.40038,-0.92467
0.09414,0.92899,-0.35792,-0.27910,0.36973,0.88623
$GPRMC,150411.000,A,3302.1346,S,06053.7501,W,0.42,112.80,160114,,,A*6F
0.00689,0.33433,-0.98893
0.08077,0.94738,-0.30977,-0.29796,0.31952,0.89951
$GPRMC,150412.000,A,3302.1345,S,06053.7502,W,0.11,112.80,160114,,,A*6A
-0.00039,0.35375,-0.91783
0.10268,0.93881,-0.32876,-0.31028,0.34425,0.88613
$GPRMC,150413.000,A,3302.1345,S,06053.7501,W,0.31,112.80,160114,,,A*6A
-0.00964,0.37901,-0.93537
0.11235,0.93716,-0.33031,-0.30907,0.34889,0.88473
$GPRMC,150414.000,A,3302.1346,S,06053.7500,W,0.40,112.80,160114,,,A*69
-0.01450,0.37172,-0.91979
0.10535,0.93594,-0.33603,-0.30602,0.35202,0.88455
$GPRMC,150415.000,A,3302.1346,S,06053.7499,W,0.25,112.80,160114,,,A*6A
-0.03735,0.36055,-0.91590
0.09296,0.93700,-0.33673,-0.30586,0.34872,0.88592
$GPRMC,150416.000,A,3302.1346,S,06053.7498,W,0.13,112.80,160114,,,A*6D
-0.02617,0.38678,-0.91687
0.08575,0.93413,-0.34649,-0.29231,0.35605,0.88757
$GPRMC,150417.000,A,3302.1346,S,06053.7498,W,0.21,112.80,160114,,,A*6D
-0.04417,0.38970,-0.92077
0.09302,0.93228,-0.34957,-0.29469,0.36114,0.88472
$GPRMC,150418.000,A,3302.1346,S,06053.7497,W,0.17,112.80,160114,,,A*68
-0.01207,0.40134,-0.88862
0.07694,0.93577,-0.34411,-0.29626,0.35100,0.88827
$GPRMC,150419.000,A,3302.1346,S,06053.7497,W,0.34,112.80,160114,,,A*68
-0.01937,0.38581,-0.93148
0.09773,0.93603,-0.33807,-0.29689,0.35165,0.88781
$GPRMC,150420.000,A,3302.1346,S,06053.7495,W,0.26,112.80,160114,,,A*63
-0.03493,0.38484,-0.92077
0.09746,0.93147,-0.35053,-0.29535,0.36340,0.88357
$GPRMC,150421.000,A,3302.1346,S,06053.7495,W,0.33,112.80,160114,,,A*66
-0.05583,0.37610,-0.91883
0.08785,0.93362,-0.34732,-0.30657,0.35709,0.88233
$GPRMC,150422.000,A,3302.1346,S,06053.7494,W,0.34,112.80,160114,,,A*63
-0.02519,0.36541,-0.91443
0.08875,0.93679,-0.33845,-0.30744,0.34896,0.88527
$GPRMC,150423.000,A,3302.1345,S,06053.7493,W,0.17,112.80,160114,,,A*67
-0.00770,0.38289,-0.94073
0.11601,0.93795,-0.32680,-0.31568,0.34678,0.88323
$GPRMC,150424.000,A,3302.1345,S,06053.7492,W,0.16,112.80,160114,,,A*60
-0.03249,0.37609,-0.92174
0.10268,0.93739,-0.33280,-0.31466,0.34800,0.88311
$GPRMC,150425.000,A,3302.1345,S,06053.7492,W,0.16,112.80,160114,,,A*61
-0.04027,0.35084,-0.91882
0.07966,0.93974,-0.33247,-0.30695,0.34045,0.88875
$GPRMC,150426.000,A,3302.1346,S,06053.7491,W,0.14,112.80,160114,,,A*60
-0.07477,0.22313,-0.96750
0.06187,0.94061,-0.33381,-0.29015,0.33696,0.89570
$GPRMC,150427.000,A,3302.1346,S,06053.7491,W,0.19,112.80,160114,,,A*6C
-0.01451,0.38192,-0.94999
0.09892,0.93553,-0.33911,-0.28169,0.35317,0.89214
$GPRMC,150428.000,A,3302.1347,S,06053.7491,W,0.21,112.80,160114,,,A*69
0.00206,0.39015,-0.81118
0.05665,0.95932,-0.27658,-0.51443,0.26547,0.81541
$GPRMC,150429.000,A,3302.1346,S,06053.7491,W,0.22,112.80,160114,,,A*6A
-0.27802,0.21492,-0.93882
-0.08419,0.94485,-0.31651,-0.63458,0.19406,0.74810
$GPRMC,150430.000,A,3302.1346,S,06053.7492,W,0.13,112.80,160114,,,A*63
-0.22649,0.27318,-0.93541
-0.02863,0.94200,-0.33438,-0.61457,0.24723,0.74912
$GPRMC,150431.000,A,3302.1346,S,06053.7492,W,0.04,112.80,160114,,,A*64
-0.22988,0.24793,-0.92469
-0.02447,0.94179,-0.33532,-0.59420,0.25604,0.76248
$GPRMC,150432.000,A,3302.1346,S,06053.7492,W,0.17,112.80,160114,,,A*65
-0.23426,0.26541,-0.92518
-0.03702,0.93877,-0.34255,-0.58405,0.25782,0.76969
$GPRMC,150433.000,A,3302.1346,S,06053.7491,W,0.34,112.80,160114,,,A*66
-0.22162,0.27998,-0.92567
-0.02068,0.94045,-0.33930,-0.58382,0.26414,0.76772
$GPRMC,150434.000,A,3302.1346,S,06053.7490,W,0.27,112.80,160114,,,A*62
-0.27269,0.26834,-0.95685
0.00173,0.94287,-0.33316,-0.54514,0.28019,0.79014
$GPRMC,150435.000,A,3302.1346,S,06053.7489,W,0.38,112.80,160114,,,A*65
-0.12342,0.39117,-0.90910
0.01362,0.93563,-0.35271,-0.32440,0.33780,0.88355
$GPRMC,150436.000,A,3302.1347,S,06053.7488,W,0.27,112.80,160114,,,A*68
-0.09960,0.38097,-0.93150
0.01236,0.93835,-0.34546,-0.30893,0.33217,0.89120
$GPRMC,150437.000,A,3302.1347,S,06053.7487,W,0.13,112.80,160114,,,A*61
-0.11223,0.35183,-0.92176
0.00825,0.94079,-0.33888,-0.30183,0.32542,0.89610
$GPRMC,150438.000,A,3302.1347,S,06053.7487,W,0.05,112.80,160114,,,A*69
-0.13120,0.34795,-0.91884
-0.01090,0.94128,-0.33746,-0.30761,0.31796,0.89681
$GPRMC,150439.000,A,3302.1347,S,06053.7487,W,0.15,112.80,160114,,,A*69
-0.10592,0.35863,-0.93247
0.00347,0.94248,-0.33423,-0.30231,0.31958,0.89804
$GPRMC,150440.000,A,3302.1347,S,06053.7487,W,0.22,112.80,160114,,,A*63
-0.10689,0.36640,-0.93345
0.01616,0.94159,-0.33638,-0.30188,0.32532,0.89612
$GPRMC,150441.000,A,3302.1346,S,06053.7488,W,0.24,112.80,160114,,,A*6A
-0.11855,0.34212,-0.91250
-0.00969,0.94208,-0.33524,-0.29211,0.31797,0.90198
$GPRMC,150442.000,A,3302.1346,S,06053.7488,W,0.25,112.80,160114,,,A*68
-0.08646,0.36251,-0.91980
0.02926,0.94531,-0.32486,-0.31314,0.31731,0.89513
$GPRMC,150443.000,A,3302.1346,S,06053.7489,W,0.09,112.80,160114,,,A*66
-0.08549,0.36348,-0.91347
0.03791,0.94517,-0.32438,-0.30876,0.31981,0.89576
$GPRMC,150444.000,A,3302.1346,S,06053.7489,W,0.08,112.80,160114,,,A*60
-0.08986,0.33143,-0.92516
0.01742,0.94773,-0.31859,-0.31906,0.30725,0.89655
$GPRMC,150445.000,A,3302.1346,S,06053.7489,W,0.18,112.80,160114,,,A*60
-0.04659,0.35619,-0.94512
0.04953,0.94430,-0.32533,-0.29720,0.32491,0.89783
$GPRMC,150446.000,A,3302.1346,S,06053.7489,W,0.17,112.80,160114,,,A*6C
-0.02083,0.43971,-0.91006
0.11550,0.91126,-0.39530,-0.24253,0.41179,0.87841
$GPRMC,150447.000,A,3302.1347,S,06053.7488,W,0.35,112.80,160114,,,A*6D
0.03218,0.41784,-0.87790
0.14352,0.90707,-0.39577,-0.24339,0.41998,0.87429
$GPRMC,150448.000,A,3302.1346,S,06053.7491,W,0.67,342.04,160114,,,A*67
0.03266,0.41299,-0.90371
0.16520,0.91988,-0.35571,-0.27764,0.38946,0.87820
$GPRMC,150449.000,A,3302.1345,S,06053.7495,W,0.73,341.49,160114,,,A*6E
0.00835,0.40814,-0.91492
0.15748,0.92080,-0.35684,-0.28946,0.38852,0.87479
$GPRMC,150450.000,A,3302.1341,S,06053.7497,W,0.80,340.71,160114,,,A*66
0.03898,0.40327,-0.91053
0.16772,0.91865,-0.35770,-0.29415,0.39295,0.87125
$GPRMC,150451.000,A,3302.1341,S,06053.7501,W,0.79,339.09,160114,,,A*6E
0.03557,0.42416,-0.91492
0.16422,0.91190,-0.37612,-0.27689,0.40858,0.86971
$GPRMC,150452.000,A,3302.1340,S,06053.7503,W,0.75,338.17,160114,,,A*6C
0.05455,0.38287,-0.91685
0.19205,0.92674,-0.32292,-0.34092,0.37155,0.86355
$GPRMC,150453.000,A,3302.1340,S,06053.7506,W,0.54,338.17,160114,,,A*6B
-0.09376,0.40136,-0.87988
0.22864,0.93694,-0.26433,-0.51394,0.34677,0.78461
$GPRMC,150454.000,A,3302.1341,S,06053.7508,W,0.36,337.51,160114,,,A*6A
-0.03733,0.23041,-0.97529
0.09410,0.96541,-0.24315,-0.54394,0.25441,0.79963
$GPRMC,150455.000,A,3302.1344,S,06053.7508,W,0.08,337.30,160114,,,A*64
-0.11123,0.21196,-0.94121
0.01996,0.97654,-0.21439,-0.52975,0.19219,0.82609
$GPRMC,150456.000,A,3302.1344,S,06053.7511,W,0.45,337.28,160114,,,A*6F
-0.00278,0.13520,-0.95627
0.13517,0.98013,-0.14520,-0.72850,0.19764,0.65592
$GPRMC,150457.000,A,3302.1343,S,06053.7513,W,0.47,337.28,160114,,,A*69
0.05165,0.20611,-1.01568
0.15984,0.97905,-0.12617,-0.68130,0.20190,0.70361
$GPRMC,150458.000,A,3302.1343,S,06053.7514,W,0.42,337.28,160114,,,A*64
-0.06842,0.07404,-1.01033
0.05796,0.97990,-0.19090,-0.57610,0.18901,0.79523
$GPRMC,150459.000,A,3302.1342,S,06053.7515,W,0.54,337.28,160114,,,A*62
-0.12585,0.34310,-0.95488
-0.03377,0.95459,-0.29600,-0.34702,0.26655,0.89918
$GPRMC,150500.000,A,3302.1341,S,06053.7516,W,0.58,337.28,160114,,,A*63
-0.13556,0.33823,-0.87744
0.01214,0.94541,-0.32567,-0.37271,0.30650,0.87587
$GPRMC,150501.000,A,3302.1339,S,06053.7517,W,0.65,307.82,160114,,,A*61
-0.07383,0.34309,-0.98603
0.07794,0.95436,-0.28829,-0.39130,0.29525,0.87161
$GPRMC,150502.000,A,3302.1339,S,06053.7519,W,0.72,311.40,160114,,,A*63
-0.03345,0.34113,-0.91443
0.08073,0.94519,-0.31637,-0.36438,0.32342,0.87328
$GPRMC,150503.000,A,3302.1338,S,06053.7519,W,0.71,325.01,160114,,,A*62
-0.03881,0.35959,-0.93538
0.06113,0.94619,-0.31779,-0.35881,0.31794,0.87759
$GPRMC,150504.000,A,3302.1339,S,06053.7521,W,0.68,324.25,160114,,,A*60
-0.04416,0.35862,-0.93538
0.08628,0.94663,-0.31056,-0.33521,0.32113,0.88573
$GPRMC,150505.000,A,3302.1339,S,06053.7522,W,0.65,323.28,160114,,,A*65
-0.05583,0.35619,-0.93976
0.07689,0.94542,-0.31666,-0.32211,0.32412,0.88949
$GPRMC,150506.000,A,3302.1339,S,06053.7522,W,0.64,321.68,160114,,,A*61
-0.03784,0.35278,-0.92369
0.08125,0.94368,-0.32072,-0.32286,0.32936,0.88729
$GPRMC,150507.000,A,3302.1338,S,06053.7522,W,0.61,321.75,160114,,,A*68
-0.05534,0.35862,-0.93148
0.07635,0.94221,-0.32620,-0.32016,0.33300,0.88691
$GPRMC,150508.000,A,3302.1335,S,06053.7522,W,0.62,326.56,160114,,,A*6F
-0.07528,0.35279,-0.92516
0.05748,0.94267,-0.32874,-0.32414,0.32907,0.88693
$GPRMC,150509.000,A,3302.1333,S,06053.7522,W,0.61,320.14,160114,,,A*6B
-0.02617,0.34987,-0.93050
0.07810,0.94363,-0.32166,-0.32686,0.32905,0.88594
$GPRMC,150510.000,A,3302.1332,S,06053.7522,W,0.58,320.14,160114,,,A*68
-0.11854,0.27073,-0.95778
0.04786,0.95955,-0.27744,-0.44987,0.26870,0.85171
$GPRMC,150511.000,A,3302.1334,S,06053.7522,W,0.25,320.14,160114,,,A*65
-0.13654,0.27511,-0.96315
0.02895,0.95958,-0.27993,-0.50126,0.25623,0.82649
$GPRMC,150512.000,A,3302.1336,S,06053.7520,W,0.28,320.14,160114,,,A*6B
-0.12925,0.28774,-0.98701
0.03677,0.95785,-0.28490,-0.46351,0.26892,0.84430
$GPRMC,150513.000,A,3302.1335,S,06053.7520,W,0.34,320.14,160114,,,A*64
-0.20315,0.26735,-0.93784
-0.06253,0.94579,-0.31871,-0.49444,0.24803,0.83307
$GPRMC,150514.000,A,3302.1337,S,06053.7520,W,0.35,320.14,160114,,,A*60
-0.20315,0.32562,-0.89450
-0.05827,0.94307,-0.32744,-0.47666,0.26191,0.83917
$GPRMC,150515.000,A,3302.1338,S,06053.7520,W,0.27,320.14,160114,,,A*6D
-0.21287,0.25618,-0.94904
-0.07555,0.95145,-0.29839,-0.45326,0.23377,0.86018
$GPRMC,150516.000,A,3302.1339,S,06053.7518,W,0.25,320.14,160114,,,A*66
-0.11953,0.33824,-0.93978
-0.07394,0.94271,-0.32531,-0.35681,0.27960,0.89135
$GPRMC,150517.000,A,3302.1340,S,06053.7519,W,0.09,320.14,160114,,,A*66
-0.17447,0.36156,-0.91252
-0.06085,0.93241,-0.35625,-0.29345,0.32442,0.89924
$GPRMC,150518.000,A,3302.1342,S,06053.7519,W,0.15,320.14,160114,,,A*66
-0.12731,0.37466,-0.89449
-0.01535,0.93539,-0.35329,-0.29645,0.33318,0.89505
$GPRMC,150519.000,A,3302.1343,S,06053.7519,W,0.23,320.14,160114,,,A*63
-0.13021,0.29939,-0.93149
-0.00235,0.95717,-0.28953,-0.33935,0.27159,0.90060
$GPRMC,150520.000,A,3302.1343,S,06053.7520,W,0.11,320.14,160114,,,A*62
-0.06310,0.25177,-0.92075
0.05071,0.97129,-0.23243,-0.52406,0.22399,0.82170
$GPRMC,150521.000,A,3302.1347,S,06053.7519,W,0.70,158.65,160114,,,A*61
-0.14284,0.22557,-0.95242
0.01228,0.97262,-0.23207,-0.53835,0.20201,0.81815
$GPRMC,150522.000,A,3302.1348,S,06053.7517,W,0.73,157.85,160114,,,A*61
-0.10589,0.23431,-0.95972
0.03901,0.96722,-0.25091,-0.53650,0.23211,0.81135
$GPRMC,150523.000,A,3302.1349,S,06053.7517,W,0.69,156.14,160114,,,A*63
-0.14917,0.24694,-0.94902
0.02698,0.96571,-0.25821,-0.52904,0.23296,0.81599
$GPRMC,150524.000,A,3302.1350,S,06053.7517,W,0.70,154.44,160114,,,A*63
-0.12535,0.26831,-0.94999
0.03951,0.96295,-0.26676,-0.52388,0.24729,0.81510
$GPRMC,150525.000,A,3302.1351,S,06053.7519,W,0.38,154.44,160114,,,A*61
-0.06604,0.37416,-0.89740
0.09053,0.93470,-0.34370,-0.43182,0.34783,0.83219
$GPRMC,150526.000,A,3302.1352,S,06053.7521,W,0.36,154.44,160114,,,A*64
-0.04951,0.38581,-0.92272
0.10756,0.92931,-0.35330,-0.39117,0.36626,0.84430
$GPRMC,150527.000,A,3302.1353,S,06053.7521,W,0.32,154.44,160114,,,A*60
-0.03346,0.35958,-0.91979
0.11132,0.93196,-0.34506,-0.39906,0.35991,0.84334
$GPRMC,150528.000,A,3302.1352,S,06053.7520,W,0.03,154.44,160114,,,A*6D
-0.04270,0.37270,-0.91687
0.10299,0.93391,-0.34235,-0.39867,0.35409,0.84598
$GPRMC,150529.000,A,3302.1352,S,06053.7520,W,0.21,154.44,160114,,,A*6C
-0.07772,0.38291,-0.93149
0.08182,0.93497,-0.34515,-0.39806,0.34815,0.84873
$GPRMC,150530.000,A,3302.1351,S,06053.7520,W,0.35,154.44,160114,,,A*62
-0.09668,0.37271,-0.93637
0.07423,0.93670,-0.34218,-0.40227,0.34210,0.84920
$GPRMC,150531.000,A,3302.1351,S,06053.7521,W,0.31,154.44,160114,,,A*66
-0.10008,0.34309,-0.93052
0.06830,0.93832,-0.33895,-0.40244,0.33679,0.85124
$GPRMC,150532.000,A,3302.1350,S,06053.7522,W,0.17,154.44,160114,,,A*63
-0.13752,0.37417,-0.90716
0.04738,0.93669,-0.34694,-0.40494,0.33552,0.85056
$GPRMC,150533.000,A,3302.1350,S,06053.7521,W,0.13,154.44,160114,,,A*65
-0.12147,0.28531,-0.96509
-0.00949,0.94481,-0.32747,-0.40507,0.29578,0.86512
$GPRMC,150534.000,A,3302.1350,S,06053.7522,W,0.11,154.44,160114,,,A*63
-0.16521,0.29356,-0.89546
0.01017,0.95349,-0.30127,-0.54352,0.25816,0.79871
$GPRMC,150535.000,A,3302.1349,S,06053.7521,W,0.29,154.44,160114,,,A*62
-0.18418,0.23772,-0.93929
-0.02148,0.96095,-0.27588,-0.52778,0.22346,0.81946
$GPRMC,150536.000,A,3302.1349,S,06053.7520,W,0.27,154.44,160114,,,A*6E
-0.16959,0.23821,-0.95243
-0.00956,0.96281,-0.27002,-0.53057,0.22400,0.81751
$GPRMC,150537.000,A,3302.1349,S,06053.7520,W,0.50,154.44,160114,,,A*6F
-0.14285,0.24597,-0.94999
0.00548,0.96399,-0.26588,-0.53450,0.22754,0.81396
$GPRMC,150538.000,A,3302.1348,S,06053.7521,W,0.51,154.44,160114,,,A*61
-0.14675,0.29162,-0.95000
0.03124,0.95992,-0.27851,-0.52160,0.25336,0.81471
$GPRMC,150539.000,A,3302.1346,S,06053.7522,W,0.50,154.44,160114,,,A*6C
-0.14480,0.27511,-0.93831
0.02269,0.95797,-0.28596,-0.50255,0.25820,0.82509
$GPRMC,150540.000,A,3302.1345,S,06053.7522,W,0.37,154.44,160114,,,A*60
-0.12875,0.27316,-0.93441
0.01659,0.95913,-0.28249,-0.49499,0.25336,0.83114
$GPRMC,150541.000,A,3302.1344,S,06053.7523,W,0.27,154.44,160114,,,A*60
-0.14287,0.31494,-0.96413
0.04680,0.95469,-0.29389,-0.48932,0.27840,0.82647
$GPRMC,150542.000,A,3302.1343,S,06053.7522,W,0.31,154.44,160114,,,A*62
-0.14188,0.27365,-0.95243
0.03012,0.95836,-0.28398,-0.48864,0.26197,0.83223
$GPRMC,150543.000,A,3302.1343,S,06053.7522,W,0.36,154.44,160114,,,A*64
-0.12827,0.27607,-0.94171
0.03401,0.95666,-0.28922,-0.47992,0.26947,0.83491
$GPRMC,150544.000,A,3302.1342,S,06053.7522,W,0.33,154.44,160114,,,A*67
-0.08014,0.34212,-0.95097
0.07769,0.94781,-0.30921,-0.40185,0.31361,0.86033
$GPRMC,150545.000,A,3302.1341,S,06053.7522,W,0.36,154.44,160114,,,A*60
-0.08938,0.33920,-0.92418
0.07100,0.94435,-0.32120,-0.37098,0.32391,0.87032
$GPRMC,150546.000,A,3302.1340,S,06053.7522,W,0.14,154.44,160114,,,A*62
-0.06118,0.34988,-0.93002
0.07346,0.94539,-0.31756,-0.37508,0.32123,0.86955
$GPRMC,150547.000,A,3302.1339,S,06053.7522,W,0.19,154.44,160114,,,A*60
-0.04805,0.32511,-0.94609
0.08044,0.94817,-0.30742,-0.38142,0.31423,0.86936
$GPRMC,150548.000,A,3302.1339,S,06053.7521,W,0.22,154.44,160114,,,A*64
-0.07382,0.34405,-0.93246
0.07221,0.94552,-0.31745,-0.36591,0.32120,0.87346
$GPRMC,150549.000,A,3302.1339,S,06053.7521,W,0.22,154.44,160114,,,A*65
-0.06604,0.33774,-0.92710
0.06070,0.94526,-0.32063,-0.36834,0.31976,0.87297
$GPRMC,150550.000,A,3302.1339,S,06053.7520,W,0.25,154.44,160114,,,A*6B
-0.05048,0.34890,-0.93830
0.07749,0.94736,-0.31064,-0.37570,0.31636,0.87108
$GPRMC,150551.000,A,3302.1339,S,06053.7519,W,0.33,154.44,160114,,,A*67
-0.07673,0.33871,-0.92954
0.06725,0.94502,-0.32003,-0.36511,0.32182,0.87357
$GPRMC,150552.000,A,3302.1339,S,06053.7518,W,0.69,120.95,160114,,,A*65
-0.10056,0.34600,-0.91591
0.05170,0.94390,-0.32615,-0.37353,0.32116,0.87025
$GPRMC,150553.000,A,3302.1341,S,06053.7517,W,0.76,129.07,160114,,,A*68
-0.06993,0.35231,-0.93831
0.06565,0.94516,-0.31993,-0.37809,0.32027,0.86860
$GPRMC,150554.000,A,3302.1342,S,06053.7515,W,1.06,127.26,160114,,,A*65
-0.08014,0.33871,-0.93831
0.05945,0.94435,-0.32351,-0.37020,0.32183,0.87142
$GPRMC,150555.000,A,3302.1344,S,06053.7513,W,1.04,128.18,160114,,,A*64
-0.08986,0.34891,-0.91834
0.03898,0.94063,-0.33719,-0.34910,0.32900,0.87743
$GPRMC,150556.000,A,3302.1345,S,06053.7517,W,0.45,128.18,160114,,,A*66
-0.07382,0.37368,-0.92273
0.06631,0.93832,-0.33935,-0.35451,0.34006,0.87102
$GPRMC,150557.000,A,3302.1343,S,06053.7517,W,0.18,128.18,160114,,,A*69
-0.08939,0.38874,-0.93442
0.06004,0.93855,-0.33989,-0.34892,0.33876,0.87378
$GPRMC,150558.000,A,3302.1343,S,06053.7517,W,0.17,128.18,160114,,,A*69
-0.12050,0.36349,-0.91981
0.04214,0.93812,-0.34374,-0.35041,0.33607,0.87423
$GPRMC,150559.000,A,3302.1342,S,06053.7516,W,0.14,128.35,160114,,,A*64
-0.08646,0.35959,-0.91250
0.04065,0.94064,-0.33696,-0.35548,0.32879,0.87495
