$GPRMC,152225.096,A,3302.1290,S,06053.7402,W,0.74,190.09,160114,,,A*65
-0.03103,0.38581,-0.91639
0.02384,0.96040,-0.27759,-0.10009,0.27856,0.95519
$GPRMC,152226.092,A,3302.1315,S,06053.7430,W,0.68,187.09,160114,,,A*64
-0.00673,0.41105,-0.91492
0.04291,0.95904,-0.28000,-0.11052,0.28309,0.95270
$GPRMC,152227.090,A,3302.1326,S,06053.7449,W,0.71,185.53,160114,,,A*6C
0.05161,0.47709,-0.89349
0.04654,0.96360,-0.26327,-0.00019,0.26356,0.96464
$GPRMC,152228.084,A,3302.1357,S,06053.7484,W,0.48,185.53,160114,,,A*6B
0.10319,0.24883,-0.97866
0.16749,0.97480,-0.14736,-0.34043,0.19746,0.91930
$GPRMC,152230.000,A,3302.1354,S,06053.7484,W,0.28,185.53,160114,,,A*6B
0.11197,0.13810,-0.99471
0.27611,0.95287,-0.12570,-0.69083,0.28769,0.66332
$GPRMC,152231.000,A,3302.1369,S,06053.7499,W,0.20,185.53,160114,,,A*60
0.14504,0.15557,-0.96062
0.26555,0.95176,-0.15375,-0.74039,0.30346,0.59977
$GPRMC,152232.000,A,3302.1364,S,06053.7492,W,0.22,185.53,160114,,,A*67
0.23158,0.18372,-0.97667
0.20507,0.97855,-0.01944,-0.97397,0.20599,0.09457
$GPRMC,152233.000,A,3302.1355,S,06053.7490,W,0.31,185.53,160114,,,A*64
0.05557,0.17306,-0.90804
0.20694,0.96916,-0.13384,-0.97662,0.19648,-0.08727
$GPRMC,152234.000,A,3302.1350,S,06053.7488,W,0.19,185.53,160114,,,A*65
0.13045,0.08273,-1.01856
0.05784,0.99662,-0.05841,-0.99341,0.05166,-0.10232
$GPRMC,152235.000,A,3302.1347,S,06053.7486,W,0.13,185.53,160114,,,A*66
-0.07282,0.19545,-0.97139
0.20925,0.96655,-0.14831,-0.95233,0.16699,-0.25530
$GPRMC,152236.000,A,3302.1344,S,06053.7487,W,0.29,185.53,160114,,,A*6E
0.11156,-0.18001,-0.99124
-0.08834,0.98933,-0.11586,-0.92437,-0.12476,-0.36053
$GPRMC,152237.000,A,3302.1345,S,06053.7490,W,0.30,185.53,160114,,,A*60
0.14996,-0.20818,-1.06720
0.14620,0.98871,-0.03272,-0.93019,0.12613,-0.34472
$GPRMC,152238.000,A,3302.1345,S,06053.7491,W,0.30,185.53,160114,,,A*6E
-0.17159,0.23631,-1.18620
-0.11925,0.98261,-0.14234,-0.85353,-0.17470,-0.49089
$GPRMC,152239.000,A,3302.1344,S,06053.7491,W,0.29,185.53,160114,,,A*66
0.18334,0.83739,-0.75570
0.66520,0.72651,-0.17232,-0.74655,0.64303,-0.17080
$GPRMC,152240.000,A,3302.1339,S,06053.7491,W,0.47,185.53,160114,,,A*6A
0.36399,0.51170,-2.00650
0.19427,0.92239,0.33384,-0.62708,0.37848,-0.68082
$GPRMC,152241.000,A,3302.1339,S,06053.7493,W,0.48,185.53,160114,,,A*66
0.04817,-0.01768,-1.52117
-0.26802,0.93925,-0.21441,-0.56785,-0.33380,-0.75241
$GPRMC,152242.000,A,3302.1337,S,06053.7495,W,0.66,335.41,160114,,,A*6B
-0.03650,1.02005,-0.74702
0.24825,0.82085,0.51437,-0.45767,0.56738,-0.68456
$GPRMC,152243.000,A,3302.1336,S,06053.7496,W,0.56,335.41,160114,,,A*6B
0.19611,-0.05228,-1.10764
0.03699,0.97546,0.21705,-0.67720,0.18419,-0.71238
$GPRMC,152244.000,A,3302.1337,S,06053.7500,W,0.58,335.41,160114,,,A*6D
0.09449,0.12206,-0.89341
0.04283,0.99662,0.07013,-0.72938,0.07916,-0.67952
$GPRMC,152245.000,A,3302.1336,S,06053.7502,W,0.60,308.21,160114,,,A*6C
0.01371,0.29838,-0.95581
0.20151,0.97296,0.11288,-0.70912,0.22441,-0.66842
$GPRMC,152246.000,A,3302.1335,S,06053.7501,W,0.53,308.21,160114,,,A*6F
-0.03968,0.05942,-0.82136
0.28571,0.95770,0.03449,-0.75500,0.24711,-0.60738
$GPRMC,152247.000,A,3302.1333,S,06053.7500,W,0.48,308.21,160114,,,A*63
-0.60023,0.26973,-0.16455
0.07626,0.97408,0.21296,-0.85322,0.17427,-0.49158
$GPRMC,152248.000,A,3302.1334,S,06053.7496,W,0.48,308.21,160114,,,A*65
0.07157,0.34596,-0.94996
0.25603,0.95838,0.12632,-0.81021,0.28403,-0.51272
$GPRMC,152249.000,A,3302.1333,S,06053.7496,W,0.51,308.21,160114,,,A*6B
0.03460,0.38289,-0.97530
0.27298,0.95452,0.11992,-0.78894,0.29345,-0.53986
$GPRMC,152250.000,A,3302.1335,S,06053.7491,W,0.52,308.21,160114,,,A*61
0.16497,0.49206,-0.62999
0.32981,0.92314,0.19760,-0.74098,0.38283,-0.55171
$GPRMC,152251.000,A,3302.1335,S,06053.7492,W,0.98,303.19,160114,,,A*65
0.36213,0.98896,-1.21056
0.25290,0.96738,0.01455,-0.86986,0.23394,-0.43430
$GPRMC,152252.000,A,3302.1333,S,06053.7492,W,0.94,308.78,160114,,,A*60
0.08032,0.34110,-0.94314
0.27958,0.95220,0.12311,-0.84556,0.30492,-0.43823
$GPRMC,152253.000,A,3302.1333,S,06053.7494,W,0.89,305.19,160114,,,A*61
0.04293,0.27261,-0.81748
0.27147,0.95613,0.11010,-0.83907,0.29115,-0.45956
$GPRMC,152254.000,A,3302.1332,S,06053.7496,W,0.90,302.44,160114,,,A*62
0.10752,0.42804,-0.98308
0.28140,0.94167,0.18457,-0.85482,0.33339,-0.39766
$GPRMC,152255.000,A,3302.1331,S,06053.7499,W,0.93,302.46,160114,,,A*6E
0.21505,0.32405,-0.81355
0.28672,0.94172,0.17595,-0.85064,0.33474,-0.40541
$GPRMC,152256.000,A,3302.1329,S,06053.7501,W,0.94,302.65,160114,,,A*62
-0.13114,0.26827,-0.76687
0.37423,0.92685,0.03019,-0.76213,0.32594,-0.55939
$GPRMC,152257.000,A,3302.1328,S,06053.7503,W,0.94,303.75,160114,,,A*60
0.42895,0.41387,-0.94696
0.20611,0.95704,0.20396,-0.84107,0.27980,-0.46294
$GPRMC,152258.000,A,3302.1327,S,06053.7512,W,1.35,291.99,160114,,,A*62
-0.13739,0.29396,-0.48538
0.35397,0.91864,0.17552,-0.60181,0.36738,-0.70912
$GPRMC,152259.000,A,3302.1325,S,06053.7516,W,1.65,293.68,160114,,,A*6C
-0.23135,0.34505,-0.85019
0.20823,0.95630,0.20526,-0.60052,0.29065,-0.74492
$GPRMC,152300.000,A,3302.1324,S,06053.7520,W,1.71,293.16,160114,,,A*69
0.20628,0.15751,-1.05021
-0.03776,0.96793,0.24836,-0.87110,0.08990,-0.48280
$GPRMC,152301.000,A,3302.1322,S,06053.7528,W,2.01,291.90,160114,,,A*6E
-0.13167,-0.05800,-1.28110
0.48458,0.87356,0.04545,-0.80742,0.46667,-0.36096
$GPRMC,152302.000,A,3302.1316,S,06053.7533,W,2.05,302.93,160114,,,A*6C
0.46881,0.27597,-1.13491
0.35230,0.93482,0.04475,-0.90663,0.35276,-0.23147
$GPRMC,152303.000,A,3302.1309,S,06053.7537,W,2.11,313.03,160114,,,A*6B
0.01223,0.27995,-1.08438
0.31148,0.95009,-0.01768,-0.87564,0.27974,-0.39369
$GPRMC,152304.000,A,3302.1303,S,06053.7542,W,2.17,316.29,160114,,,A*6F
0.01665,0.27894,-0.89249
0.28843,0.95284,0.09432,-0.77161,0.28964,-0.56632
$GPRMC,152305.000,A,3302.1298,S,06053.7546,W,2.20,318.76,160114,,,A*69
0.14834,0.44310,-1.08924
0.12893,0.97427,0.18487,-0.77400,0.21541,-0.59542
$GPRMC,152306.000,A,3302.1295,S,06053.7550,W,2.03,316.31,160114,,,A*6C
-1.01682,0.62117,-1.23227
0.05737,0.99252,-0.10776,-0.25427,-0.08985,-0.96295
$GPRMC,152307.000,A,3302.1290,S,06053.7555,W,2.11,317.65,160114,,,A*6E
0.41582,0.07300,-1.30096
0.11265,0.98337,0.14246,-0.93741,0.15272,-0.31295
$GPRMC,152308.000,A,3302.1285,S,06053.7561,W,2.38,317.74,160114,,,A*69
-0.40652,-0.22925,-1.88748
0.01605,0.99987,0.00109,-0.99974,0.01607,-0.01607
$GPRMC,152309.000,A,3302.1279,S,06053.7567,W,2.46,318.20,160114,,,A*6A
-0.05269,0.51189,0.09074
0.59317,0.80502,-0.00972,-0.79335,0.58243,-0.17713
$GPRMC,152310.000,A,3302.1274,S,06053.7574,W,2.63,318.86,160114,,,A*66
0.41191,0.62317,-0.82671
0.29912,0.95383,0.02724,-0.93431,0.28697,0.21144
$GPRMC,152311.000,A,3302.1265,S,06053.7579,W,2.90,329.00,160114,,,A*6A
0.19062,0.02843,-1.57374
0.20729,0.97748,-0.03949,-0.93771,0.21004,0.27674
$GPRMC,152312.000,A,3302.1261,S,06053.7586,W,2.71,325.86,160114,,,A*60
-0.37990,-0.13242,-0.36020
0.27973,0.86636,-0.41373,-0.78474,0.45459,0.42135
$GPRMC,152313.000,A,3302.1256,S,06053.7591,W,2.64,323.79,160114,,,A*61
0.40320,0.34199,-0.93867
0.41511,0.89669,-0.15373,-0.51059,0.36948,0.77639
$GPRMC,152314.000,A,3302.1251,S,06053.7592,W,1.89,3.81,160114,,,A*64
0.95893,0.63325,-0.90790
0.82473,0.55336,0.11670,-0.54490,0.72232,0.42583
$GPRMC,152315.000,A,3302.1246,S,06053.7597,W,2.80,319.98,160114,,,A*6C
0.42766,0.34236,-0.34694
0.77402,0.62976,-0.06545,-0.57396,0.74154,0.34741
$GPRMC,152316.000,A,3302.1240,S,06053.7602,W,2.74,323.16,160114,,,A*62
0.84330,0.20056,-0.94535
0.43076,0.90238,0.01219,-0.51494,0.23468,0.82447
$GPRMC,152317.000,A,3302.1231,S,06053.7603,W,3.82,326.47,160114,,,A*6D
0.09239,-0.17731,0.13718
0.70626,0.59230,-0.38777,0.03553,0.51739,0.85501
$GPRMC,152318.000,A,3302.1221,S,06053.7604,W,3.17,7.35,160114,,,A*6D
-0.38262,-0.48898,0.09377
0.66484,0.39829,-0.63194,0.39570,0.52974,0.75019
$GPRMC,152319.000,A,3302.1213,S,06053.7602,W,3.15,9.93,160114,,,A*6B
0.04806,1.43378,-0.54497
0.07286,0.63436,-0.76960,0.37018,0.69932,0.61148
$GPRMC,152320.000,A,3302.1205,S,06053.7600,W,2.88,10.90,160114,,,A*5A
-0.03461,-0.21703,-0.24857
0.07476,0.82326,-0.56273,0.41874,0.48623,0.76697
$GPRMC,152321.000,A,3302.1200,S,06053.7598,W,2.57,12.13,160114,,,A*57
0.59685,0.19182,-0.61083
0.34196,0.93069,-0.12994,0.42721,-0.03080,0.90363
$GPRMC,152322.000,A,3302.1193,S,06053.7596,W,3.03,13.17,160114,,,A*56
0.04989,0.75175,0.27287
0.20065,0.77107,-0.60432,0.29419,0.54097,0.78791
$GPRMC,152323.000,A,3302.1186,S,06053.7595,W,2.24,12.04,160114,,,A*57
-0.27164,-0.00461,-0.91881
-0.23896,0.96086,0.14019,0.75649,0.09370,0.64726
$GPRMC,152324.000,A,3302.1182,S,06053.7595,W,1.13,12.31,160114,,,A*55
-0.15253,0.27265,-0.75422
-0.32677,0.91971,0.21760,0.93571,0.28246,0.21131
$GPRMC,152325.000,A,3302.1181,S,06053.7593,W,0.89,16.27,160114,,,A*50
0.18991,0.50640,-2.00582
-0.19633,0.95546,-0.22035,0.65985,-0.03749,-0.75046
$GPRMC,152326.000,A,3302.1182,S,06053.7592,W,0.83,109.91,160114,,,A*69
0.34560,0.06795,-0.16622
-0.22831,0.18759,-0.95535,0.97264,0.08736,-0.21529
$GPRMC,152327.000,A,3302.1180,S,06053.7589,W,0.82,106.98,160114,,,A*67
0.66485,0.74978,-0.36449
0.87268,0.41318,-0.26022,-0.09090,0.66107,0.74480
$GPRMC,152328.000,A,3302.1178,S,06053.7588,W,0.78,102.17,160114,,,A*68
-0.03712,0.95812,0.56161
0.98397,0.00688,0.17823,-0.15128,0.56152,0.81351
$GPRMC,152329.000,A,3302.1177,S,06053.7587,W,0.60,57.46,160114,,,A*55
0.97106,-0.37758,-0.06176
0.76375,0.07290,-0.64138,0.63009,0.13170,0.76527
$GPRMC,152330.000,A,3302.1178,S,06053.7587,W,0.43,57.46,160114,,,A*53
0.52235,0.21134,-1.01654
0.53029,0.75961,-0.37654,0.02196,0.43168,0.90176
$GPRMC,152331.000,A,3302.1180,S,06053.7588,W,0.25,57.46,160114,,,A*5A
0.53504,0.22926,-0.80274
-0.03704,0.84434,-0.53453,0.95477,0.18782,0.23052
$GPRMC,152332.000,A,3302.1182,S,06053.7589,W,0.18,57.46,160114,,,A*54
0.26761,-0.34997,-1.29458
0.11069,0.98515,-0.13122,0.95662,-0.06981,0.28284
$GPRMC,152333.000,A,3302.1184,S,06053.7595,W,0.38,57.46,160114,,,A*5C
0.25337,0.48096,-1.07023
-0.44499,0.83516,0.32326,0.82516,0.52264,-0.21438
$GPRMC,152334.000,A,3302.1184,S,06053.7596,W,0.65,233.38,160114,,,A*69
0.76146,0.68092,-1.05699
-0.46774,0.86998,-0.15605,0.88251,0.46947,-0.02786
$GPRMC,152335.000,A,3302.1186,S,06053.7598,W,0.66,230.69,160114,,,A*60
0.15764,0.35177,-0.92412
-0.16326,0.95555,-0.24549,0.72168,0.28533,0.63068
$GPRMC,152336.000,A,3302.1187,S,06053.7599,W,0.62,230.69,160114,,,A*67
0.10318,0.32847,-0.95238
0.11777,0.94278,-0.31194,0.01440,0.31247,0.94982
$GPRMC,152337.000,A,3302.1188,S,06053.7598,W,0.39,230.69,160114,,,A*66
0.64775,1.07955,-0.39329
0.63854,0.43609,-0.63410,-0.09527,0.86241,0.49717
$GPRMC,152338.000,A,3302.1189,S,06053.7596,W,0.36,230.69,160114,,,A*69
0.17464,0.52512,-0.81750
0.56311,0.79621,-0.22127,-0.68081,0.59874,0.42190
$GPRMC,152339.000,A,3302.1190,S,06053.7597,W,0.32,230.69,160114,,,A*65
0.07304,0.42170,-0.82335
0.43088,0.88238,-0.18908,-0.83889,0.46888,0.27643
$GPRMC,152340.000,A,3302.1191,S,06053.7597,W,0.29,230.69,160114,,,A*60
0.33222,0.38084,-0.83107
0.46413,0.88472,0.04300,-0.86184,0.43985,0.25250
$GPRMC,152341.000,A,3302.1191,S,06053.7596,W,0.48,230.69,160114,,,A*67
0.38674,0.22444,-0.78281
0.24906,0.94681,0.20376,-0.83898,0.31603,-0.44299
$GPRMC,152342.000,A,3302.1191,S,06053.7595,W,0.50,230.69,160114,,,A*6E
0.76006,0.53375,-0.97125
0.50508,0.77390,0.38207,-0.73029,0.61914,-0.28868
$GPRMC,152343.000,A,3302.1189,S,06053.7594,W,0.80,341.44,160114,,,A*62
-0.06749,0.37269,-0.85844
0.08501,0.99629,0.01331,-0.88436,0.08160,-0.45963
$GPRMC,152344.000,A,3302.1186,S,06053.7597,W,0.96,330.21,160114,,,A*6B
-0.32123,-0.04247,-0.94609
0.16541,0.97193,-0.16732,-0.81651,0.03981,-0.57595
$GPRMC,152345.000,A,3302.1182,S,06053.7601,W,1.23,327.31,160114,,,A*6A
0.07321,-0.24075,-0.77549
0.00629,0.95383,0.30029,-0.68814,0.22201,-0.69077
$GPRMC,152346.000,A,3302.1167,S,06053.7609,W,2.41,329.38,160114,,,A*6A
1.81781,1.08354,0.12130
-0.52511,0.74330,0.41444,-0.62463,-0.00587,-0.78089
$GPRMC,152347.000,A,3302.1157,S,06053.7619,W,3.22,327.16,160114,,,A*6F
0.53690,-0.16641,-1.53076
-0.46718,0.88163,-0.06692,-0.61223,-0.37717,-0.69492
$GPRMC,152348.000,A,3302.1148,S,06053.7626,W,2.85,320.98,160114,,,A*6F
-0.05864,-0.03235,-0.87005
0.05110,0.96349,0.26282,0.21170,0.24674,-0.94568
$GPRMC,152349.000,A,3302.1140,S,06053.7631,W,2.41,319.66,160114,,,A*63
0.26421,0.18804,-0.76481
-0.10458,0.97435,0.19925,-0.41597,0.13913,-0.89867
$GPRMC,152350.000,A,3302.1135,S,06053.7636,W,2.42,320.84,160114,,,A*6B
0.16017,0.10114,-0.79112
0.11392,0.98568,0.12435,-0.59533,0.16793,-0.78574
$GPRMC,152351.000,A,3302.1132,S,06053.7649,W,2.83,322.54,160114,,,A*67
-0.30221,0.08955,-0.57987
0.16726,0.98516,0.03860,-0.67465,0.14291,-0.72417
$GPRMC,152352.000,A,3302.1125,S,06053.7654,W,2.80,324.20,160114,,,A*68
-0.11739,-1.18709,-1.66466
-0.17764,0.98364,0.03001,-0.32695,-0.03023,-0.94456
$GPRMC,152353.000,A,3302.1117,S,06053.7656,W,2.82,324.93,160114,,,A*60
0.23022,-0.01836,-0.77209
-0.13258,0.97449,0.18110,-0.31205,0.13238,-0.94080
$GPRMC,152354.000,A,3302.1109,S,06053.7656,W,2.16,327.31,160114,,,A*6E
0.33409,0.40858,-1.13497
-0.11673,0.95926,0.25726,0.05960,0.26533,-0.96231
$GPRMC,152355.000,A,3302.1106,S,06053.7658,W,0.78,318.71,160114,,,A*6C
-0.05967,0.24302,-0.85744
0.05638,0.93164,0.35897,0.09967,0.35249,-0.93049
$GPRMC,152356.000,A,3302.1104,S,06053.7660,W,0.42,318.71,160114,,,A*6F
-0.31300,0.11196,-0.91397
0.35300,0.91019,0.21665,0.31443,0.10268,-0.94371
$GPRMC,152357.000,A,3302.1101,S,06053.7657,W,0.40,318.71,160114,,,A*6D
-0.21580,0.27999,-0.96171
0.30440,0.95254,0.00095,-0.72447,0.23216,-0.64903
$GPRMC,152358.000,A,3302.1098,S,06053.7657,W,0.58,318.71,160114,,,A*6A
0.09205,0.12546,-0.93871
0.23231,0.95915,-0.16145,-0.95873,0.25379,0.12820
$GPRMC,152359.000,A,3302.1095,S,06053.7654,W,0.58,24.43,160114,,,A*58
-0.07866,0.30034,-0.90713
0.27246,0.94043,-0.20337,-0.93533,0.30845,0.17326
$GPRMC,152400.000,A,3302.1092,S,06053.7652,W,0.62,26.82,160114,,,A*54
0.07209,0.23668,-0.91877
0.24359,0.95423,-0.17350,-0.90633,0.28764,0.30957
$GPRMC,152401.000,A,3302.1090,S,06053.7652,W,0.46,26.82,160114,,,A*51
-0.40899,1.12359,-0.72912
0.17629,0.94635,-0.27081,-0.97934,0.19632,0.04854
$GPRMC,152402.000,A,3302.1087,S,06053.7652,W,0.78,23.63,160114,,,A*53
-0.47248,-0.46195,-1.44524
-0.03089,0.99302,-0.11385,-0.99561,-0.02050,0.09129
$GPRMC,152403.000,A,3302.1085,S,06053.7649,W,1.12,37.99,160114,,,A*57
0.20145,0.31142,-0.79017
0.30781,0.95052,-0.04209,-0.94711,0.31033,0.08171
$GPRMC,152404.000,A,3302.1082,S,06053.7646,W,1.14,39.87,160114,,,A*5F
0.09444,0.24591,-0.95675
0.25265,0.96438,-0.07835,-0.96662,0.25514,0.02345
$GPRMC,152405.000,A,3302.1080,S,06053.7646,W,1.08,38.79,160114,,,A*51
0.02734,0.20902,-0.97916
0.21366,0.97350,-0.08157,-0.97679,0.21420,-0.00225
$GPRMC,152406.000,A,3302.1080,S,06053.7646,W,0.80,37.94,160114,,,A*5F
-0.08650,0.37807,-1.04302
0.24267,0.95668,-0.16084,-0.96226,0.25843,0.08529
$GPRMC,152407.000,A,3302.1077,S,06053.7645,W,0.96,36.20,160114,,,A*5C
0.26209,0.62859,-1.03032
0.38404,0.92317,0.01643,-0.92319,0.38363,0.02344
$GPRMC,152408.000,A,3302.1070,S,06053.7645,W,1.39,20.47,160114,,,A*56
1.41958,0.91696,-1.94617
-0.08231,0.99598,0.03521,-0.98647,-0.07640,-0.14505
$GPRMC,152409.000,A,3302.1057,S,06053.7649,W,2.33,1.61,160114,,,A*60
-1.99078,0.39269,-1.39465
-0.42934,0.87087,-0.23928,-0.49487,-0.44848,-0.74429
$GPRMC,152410.000,A,3302.1041,S,06053.7657,W,3.54,344.15,160114,,,A*61
0.81592,1.99233,-1.71470
-0.37461,0.79533,0.47657,-0.58023,0.19982,-0.78956
$GPRMC,152411.000,A,3302.1033,S,06053.7662,W,3.31,322.63,160114,,,A*61
0.43385,0.11716,-1.10713
-0.16128,0.92947,0.33177,-0.48148,0.21934,-0.84856
$GPRMC,152412.000,A,3302.1029,S,06053.7668,W,1.68,311.36,160114,,,A*6D
0.07595,0.23428,-1.05026
0.05114,0.99187,0.11652,-0.32529,0.12685,-0.93707
$GPRMC,152413.000,A,3302.1029,S,06053.7670,W,0.55,311.36,160114,,,A*6A
0.00887,0.21680,-0.96699
0.06872,0.98417,0.16338,-0.38395,0.17725,-0.90618
$GPRMC,152414.000,A,3302.1029,S,06053.7670,W,0.36,311.36,160114,,,A*68
0.04192,0.24593,-0.97235
0.05261,0.98550,0.16132,-0.40663,0.16869,-0.89788
$GPRMC,152415.000,A,3302.1029,S,06053.7669,W,0.29,311.36,160114,,,A*6F
0.04533,0.22505,-0.98403
0.06934,0.98355,0.16680,-0.44662,0.18012,-0.87641
$GPRMC,152416.000,A,3302.1029,S,06053.7667,W,0.23,311.36,160114,,,A*68
0.03515,0.18715,-0.90805
0.11466,0.98084,0.15752,-0.38253,0.18994,-0.90421
$GPRMC,152417.000,A,3302.1029,S,06053.7667,W,0.19,311.36,160114,,,A*60
0.28944,0.16525,-1.00928
-0.07106,0.99376,0.08593,-0.53520,0.03471,-0.84401
$GPRMC,152418.000,A,3302.1029,S,06053.7667,W,0.65,284.21,160114,,,A*6F
-0.02712,0.18767,-0.99963
0.04832,0.99692,0.06177,-0.42823,0.07654,-0.90042
$GPRMC,152419.000,A,3302.1028,S,06053.7669,W,0.71,294.74,160114,,,A*65
0.02686,0.21485,-0.96942
0.05050,0.98569,0.16080,-0.41065,0.16726,-0.89632
$GPRMC,152420.000,A,3302.1027,S,06053.7669,W,0.72,296.83,160114,,,A*69
-0.01401,0.31005,-0.95338
0.12196,0.97259,0.19800,-0.52320,0.23252,-0.81987
$GPRMC,152421.000,A,3302.1026,S,06053.7670,W,0.68,301.15,160114,,,A*6A
0.09201,0.23329,-0.98792
0.07273,0.98481,0.15765,-0.61996,0.16845,-0.76634
$GPRMC,152422.000,A,3302.1026,S,06053.7670,W,0.27,301.15,160114,,,A*62
0.01377,0.11916,-0.88905
-0.03263,0.99760,0.06103,-0.37508,0.04437,-0.92593
$GPRMC,152423.000,A,3302.1026,S,06053.7667,W,0.27,301.15,160114,,,A*65
-0.31603,0.14264,-1.34353
0.17870,0.97074,0.16038,-0.00121,0.16322,-0.98659
$GPRMC,152424.000,A,3302.1029,S,06053.7674,W,0.99,270.16,160114,,,A*6E
0.38814,0.11377,-1.10617
-0.03693,0.97129,0.23503,-0.72249,0.13654,-0.67777
$GPRMC,152425.000,A,3302.1027,S,06053.7682,W,1.82,271.79,160114,,,A*6B
0.50236,0.74162,-0.68888
0.01517,0.95853,0.28458,-0.63271,0.22959,-0.73957
$GPRMC,152426.000,A,3302.1024,S,06053.7688,W,2.33,274.09,160114,,,A*6A
0.36388,0.30262,-0.69711
-0.25346,0.85864,0.44554,-0.27423,0.37791,-0.88430
$GPRMC,152427.000,A,3302.1021,S,06053.7694,W,2.31,276.38,160114,,,A*61
0.14602,0.04145,-1.03900
0.00327,0.99074,0.13570,-0.30853,0.13008,-0.94228
$GPRMC,152428.000,A,3302.1020,S,06053.7696,W,1.87,299.50,160114,,,A*6C
-0.03629,0.02010,-0.88758
0.11552,0.99302,0.02387,-0.15046,0.04125,-0.98776
$GPRMC,152429.000,A,3302.1019,S,06053.7702,W,1.40,293.45,160114,,,A*6E
0.11536,0.15753,-1.01663
-0.00281,0.99711,0.07596,-0.24665,0.07292,-0.96636
$GPRMC,152430.000,A,3302.1018,S,06053.7700,W,0.83,293.14,160114,,,A*6F
-0.00862,0.11773,-0.98500
0.01414,0.99757,0.06829,-0.26837,0.06958,-0.96080
$GPRMC,152431.000,A,3302.1017,S,06053.7701,W,0.58,293.14,160114,,,A*66
0.08670,0.10896,-0.96549
-0.03700,0.99482,0.09472,-0.26114,0.08186,-0.96182
$GPRMC,152432.000,A,3302.1016,S,06053.7702,W,0.53,293.14,160114,,,A*6C
-0.08355,0.27317,-1.02596
0.06560,0.98547,0.15665,-0.19060,0.16647,-0.96745
$GPRMC,152433.000,A,3302.1014,S,06053.7705,W,0.59,293.09,160114,,,A*6E
0.18147,0.29349,-0.96843
-0.00043,0.98260,0.18572,-0.54828,0.15508,-0.82179
$GPRMC,152434.000,A,3302.1012,S,06053.7706,W,0.90,294.29,160114,,,A*6C
0.00791,0.13035,-0.97136
-0.01569,0.99545,0.09398,-0.17977,0.08965,-0.97962
$GPRMC,152435.000,A,3302.1012,S,06053.7711,W,0.92,280.35,160114,,,A*61
0.13680,0.38377,-0.63533
0.01611,0.96940,0.24495,-0.38541,0.23207,-0.89309
$GPRMC,152436.000,A,3302.1013,S,06053.7715,W,0.88,273.02,160114,,,A*64
0.19510,0.26434,-0.95381
-0.07899,0.96706,0.24197,-0.30134,0.20820,-0.93051
$GPRMC,152437.000,A,3302.1014,S,06053.7719,W,0.64,269.90,160114,,,A*6C
0.16933,0.15121,-1.06094
0.05202,0.97401,0.22045,-0.38942,0.22306,-0.89364
$GPRMC,152438.000,A,3302.1014,S,06053.7720,W,0.58,269.90,160114,,,A*66
-0.06846,0.38677,-0.83312
0.19224,0.96033,0.20204,-0.55730,0.27629,-0.78299
$GPRMC,152439.000,A,3302.1013,S,06053.7723,W,0.80,293.10,160114,,,A*6B
-0.34919,0.75211,-1.11524
0.25476,0.90700,0.33533,-0.35050,0.40980,-0.84215
$GPRMC,152440.000,A,3302.1012,S,06053.7726,W,0.86,295.45,160114,,,A*61
0.17317,0.50037,-0.91684
0.17184,0.94135,0.29040,-0.60723,0.33333,-0.72122
$GPRMC,152441.000,A,3302.1013,S,06053.7727,W,0.54,295.45,160114,,,A*6F
0.02930,0.01090,-1.13156
0.09270,0.98377,0.15362,-0.48889,0.17938,-0.85371
$GPRMC,152442.000,A,3302.1014,S,06053.7730,W,0.56,256.45,160114,,,A*60
-0.69573,1.60900,-1.58498
0.04866,0.99489,0.08844,-0.08260,0.09225,-0.99230
$GPRMC,152443.000,A,3302.1011,S,06053.7734,W,1.25,299.25,160114,,,A*60
0.39188,0.75387,-1.08535
-0.10452,0.95897,0.26354,-0.32504,0.21750,-0.92035
$GPRMC,152444.000,A,3302.1009,S,06053.7739,W,1.48,298.26,160114,,,A*6A
-0.46690,-0.00144,-2.00661
0.00167,0.99900,0.04461,-0.01248,0.04463,-0.99893
$GPRMC,152445.000,A,3302.1008,S,06053.7745,W,1.65,297.41,160114,,,A*60
0.05607,0.09536,-0.93969
-0.05575,0.99126,0.11954,-0.25511,0.10161,-0.96156
$GPRMC,152446.000,A,3302.1007,S,06053.7751,W,1.59,283.51,160114,,,A*62
0.27475,0.34889,-1.25575
-0.14902,0.98544,0.08191,-0.41201,0.01342,-0.91108
$GPRMC,152447.000,A,3302.1005,S,06053.7758,W,1.82,284.10,160114,,,A*6C
-0.27024,0.44702,-0.71191
0.20873,0.90554,0.36937,-0.28941,0.41796,-0.86113
$GPRMC,152448.000,A,3302.1003,S,06053.7764,W,1.89,284.84,160114,,,A*6C
-0.15195,-0.19018,-0.81647
-0.04446,0.97280,0.22733,-0.15672,0.21795,-0.96330
$GPRMC,152449.000,A,3302.1001,S,06053.7772,W,2.12,285.39,160114,,,A*6E
-0.05119,-0.05529,-0.29730
-0.02826,0.99705,0.07136,-0.10997,0.06785,-0.99162
$GPRMC,152450.000,A,3302.0999,S,06053.7777,W,1.95,297.25,160114,,,A*68
0.62391,0.43861,-1.04286
0.03759,0.97099,0.23616,-0.07875,0.23847,-0.96795
$GPRMC,152451.000,A,3302.1000,S,06053.7783,W,1.58,296.03,160114,,,A*6E
-0.03453,0.31304,-1.36151
-0.03342,0.99095,0.13004,-0.15683,0.12330,-0.97990
$GPRMC,152452.000,A,3302.1000,S,06053.7791,W,1.81,294.06,160114,,,A*6D
-0.25252,-0.14603,-0.42786
0.02056,0.99937,-0.02883,-0.38869,-0.01858,-0.92118
$GPRMC,152453.000,A,3302.1000,S,06053.7799,W,2.25,292.79,160114,,,A*67
0.34701,0.07867,-0.34350
-0.27422,0.92527,0.26208,-0.36907,0.15040,-0.91715
$GPRMC,152454.000,A,3302.1002,S,06053.7807,W,2.19,290.49,160114,,,A*64
0.01328,0.14490,-0.87785
-0.04341,0.98484,0.16796,-0.14934,0.15984,-0.97578
$GPRMC,152455.000,A,3302.1002,S,06053.7812,W,1.82,288.28,160114,,,A*6E
-0.13821,-0.83560,-0.96293
0.01626,0.99849,0.05253,0.27884,0.04592,-0.95924
$GPRMC,152456.000,A,3302.1004,S,06053.7821,W,2.15,286.23,160114,,,A*63
0.09649,0.17786,-0.63725
-0.10624,0.91982,0.37768,-0.37700,0.31421,-0.87129
$GPRMC,152457.000,A,3302.1001,S,06053.7830,W,2.43,279.45,160114,,,A*64
0.21787,0.59021,-0.94217
0.02801,0.92468,0.37970,-0.48627,0.34449,-0.80304
$GPRMC,152458.000,A,3302.1000,S,06053.7839,W,2.59,292.38,160114,,,A*67
-0.70604,0.75652,-0.87718
0.50077,0.85748,0.11812,0.01988,0.12503,-0.99195
$GPRMC,152459.000,A,3302.0999,S,06053.7849,W,2.85,290.91,160114,,,A*69
-0.11314,0.14978,-0.85646
-0.13193,0.96980,0.20515,0.05672,0.21400,-0.97519
$GPRMC,152500.000,A,3302.0999,S,06053.7859,W,2.82,288.67,160114,,,A*62
0.35562,0.21765,-0.77405
-0.12586,0.94444,0.30364,-0.10520,0.29164,-0.95072
$GPRMC,152501.000,A,3302.0995,S,06053.7865,W,1.41,288.02,160114,,,A*6F
-0.05283,0.00603,-0.96112
-0.04035,0.98251,0.18181,0.07740,0.18448,-0.97978
$GPRMC,152502.000,A,3302.0994,S,06053.7870,W,1.19,260.55,160114,,,A*60
-0.06042,0.66761,-1.49697
-0.06005,0.82381,0.56368,-0.21236,0.54123,-0.81362
$GPRMC,152503.000,A,3302.0993,S,06053.7875,W,1.45,261.25,160114,,,A*6C
0.46840,0.48616,-0.63235
0.05928,0.89928,0.43334,-0.58797,0.38227,-0.71286
$GPRMC,152504.000,A,3302.0992,S,06053.7882,W,1.90,263.01,160114,,,A*6E
0.14309,0.53966,-0.60760
-0.14990,0.88190,0.44697,-0.23318,0.40779,-0.88280
$GPRMC,152505.000,A,3302.0990,S,06053.7888,W,1.87,281.29,160114,,,A*67
0.18443,0.22110,-0.86322
-0.10766,0.96299,0.24709,-0.10808,0.23573,-0.96579
$GPRMC,152506.000,A,3302.0989,S,06053.7895,W,1.88,281.07,160114,,,A*63
-0.29160,0.11195,-0.90520
0.15895,0.95144,0.26362,0.14030,0.24254,-0.95994
$GPRMC,152507.000,A,3302.0988,S,06053.7902,W,1.90,278.58,160114,,,A*69
0.62977,0.31525,-1.05988
-0.01405,0.90793,0.41890,-0.50818,0.35431,-0.78499
$GPRMC,152508.000,A,3302.0989,S,06053.7910,W,2.20,278.32,160114,,,A*60
0.38076,0.65185,-0.94409
-0.11285,0.94555,0.30527,-0.19339,0.28046,-0.94018
$GPRMC,152509.000,A,3302.0989,S,06053.7919,W,2.26,277.02,160114,,,A*62
0.17086,0.13221,-0.75849
-0.16823,0.95128,0.25840,0.05862,0.27132,-0.96070
$GPRMC,152510.000,A,3302.0991,S,06053.7926,W,2.09,268.65,160114,,,A*6D
0.08675,0.11183,-0.76094
-0.09361,0.95972,0.26492,0.03629,0.26920,-0.96240
$GPRMC,152511.000,A,3302.0991,S,06053.7930,W,1.93,264.37,160114,,,A*60
0.23644,0.30025,-0.86078
-0.13402,0.92784,0.34807,-0.19102,0.32046,-0.92780
$GPRMC,152512.000,A,3302.0994,S,06053.7937,W,1.95,254.66,160114,,,A*60
-0.01973,0.03756,-0.77118
-0.04022,0.96718,0.25090,-0.21560,0.23679,-0.94734
$GPRMC,152513.000,A,3302.0996,S,06053.7942,W,1.99,256.09,160114,,,A*66
0.00496,0.45134,-0.81947
-0.00009,0.93013,0.36724,-0.42488,0.33241,-0.84201
$GPRMC,152514.000,A,3302.0995,S,06053.7947,W,2.06,257.40,160114,,,A*6E
-0.08544,0.44987,-0.63102
-0.00421,0.90710,0.42090,-0.18034,0.41331,-0.89255
$GPRMC,152515.000,A,3302.0993,S,06053.7954,W,2.28,259.46,160114,,,A*6F
0.03811,0.52944,-0.38067
0.03259,0.78558,0.61790,-0.08029,0.61829,-0.78184
$GPRMC,152516.000,A,3302.0993,S,06053.7961,W,2.23,261.10,160114,,,A*69
0.12607,0.14780,-0.96403
-0.12443,0.95906,0.25442,-0.29892,0.20827,-0.93127
$GPRMC,152517.000,A,3302.0994,S,06053.7968,W,2.23,262.34,160114,,,A*63
0.23353,0.20022,-0.92067
-0.09815,0.96652,0.23708,-0.19059,0.21557,-0.95771
$GPRMC,152518.000,A,3302.0994,S,06053.7976,W,2.22,263.84,160114,,,A*68
0.19271,0.25217,-0.78043
-0.10456,0.96134,0.25475,-0.33457,0.20723,-0.91930
$GPRMC,152519.000,A,3302.0994,S,06053.7980,W,1.96,264.98,160114,,,A*66
-0.03876,0.15852,-0.92560
-0.07660,0.97791,0.19447,-0.21393,0.17438,-0.96116
$GPRMC,152520.000,A,3302.0994,S,06053.7984,W,1.65,265.89,160114,,,A*65
-0.01009,0.08083,-1.06048
-0.03000,0.99924,0.02481,-0.26500,0.01598,-0.96412
$GPRMC,152521.000,A,3302.0998,S,06053.7992,W,1.32,259.97,160114,,,A*6D
-0.17034,-0.29998,-0.59632
0.16884,0.96784,0.18652,-0.00727,0.19045,-0.98167
$GPRMC,152522.000,A,3302.1002,S,06053.8004,W,1.99,260.83,160114,,,A*62
0.32251,0.08950,-1.08718
-0.05441,0.95862,0.27945,-0.38196,0.23859,-0.89285
$GPRMC,152523.000,A,3302.1002,S,06053.8012,W,2.33,262.34,160114,,,A*69
0.10902,0.36925,-0.87349
0.00630,0.93741,0.34816,-0.28587,0.33533,-0.89768
$GPRMC,152524.000,A,3302.1003,S,06053.8020,W,2.32,263.43,160114,,,A*6E
0.09924,0.58100,-0.88084
0.04031,0.95440,0.29581,-0.29182,0.29439,-0.91004
$GPRMC,152525.000,A,3302.1003,S,06053.8029,W,2.33,264.61,160114,,,A*60
0.49563,0.14577,-0.98585
0.03001,0.95865,0.28300,-0.35809,0.27464,-0.89238
$GPRMC,152526.000,A,3302.1002,S,06053.8039,W,2.38,265.84,160114,,,A*62
0.03784,0.65542,-1.35425
0.04848,0.95799,0.28266,-0.25029,0.28561,-0.92508
$GPRMC,152527.000,A,3302.1002,S,06053.8047,W,2.31,267.01,160114,,,A*6C
0.03754,0.36636,-0.87546
0.02751,0.95679,0.28947,-0.25380,0.28678,-0.92377
$GPRMC,152528.000,A,3302.1002,S,06053.8053,W,1.79,268.65,160114,,,A*64
0.11731,0.34690,-0.82916
0.01570,0.96305,0.26886,-0.39217,0.25328,-0.88434
$GPRMC,152529.000,A,3302.1004,S,06053.8059,W,1.73,265.03,160114,,,A*6E
-0.31154,-0.21289,-1.21489
0.09950,0.99466,0.02741,0.43617,-0.01884,-0.89967
$GPRMC,152530.000,A,3302.1008,S,06053.8069,W,1.93,257.63,160114,,,A*60
0.35552,-0.07362,-1.44851
0.25759,0.93910,0.22744,-0.28898,0.29949,-0.90929
$GPRMC,152531.000,A,3302.1009,S,06053.8079,W,2.40,258.40,160114,,,A*62
0.02540,0.46347,-0.74788
0.37397,0.86940,0.32293,-0.75372,0.48779,-0.44041
$GPRMC,152532.000,A,3302.1008,S,06053.8086,W,2.35,259.64,160114,,,A*65
0.20570,0.49749,-1.10288
0.00999,0.93960,0.34212,-0.41023,0.31587,-0.85553
$GPRMC,152533.000,A,3302.1007,S,06053.8093,W,2.30,261.27,160114,,,A*66
0.29838,0.30739,-0.13998
-0.35542,0.93464,-0.01078,0.27052,0.09182,-0.95833
$GPRMC,152534.000,A,3302.1004,S,06053.8098,W,2.12,262.95,160114,,,A*63
0.07016,0.12596,-0.95332
-0.03108,0.99931,0.02037,0.57933,0.03461,-0.81436
$GPRMC,152535.000,A,3302.1008,S,06053.8106,W,1.95,265.24,160114,,,A*69
-0.13646,0.07062,-0.85109
-0.07324,0.97301,0.21883,0.29458,0.23074,-0.92735
$GPRMC,152536.000,A,3302.1010,S,06053.8110,W,1.45,265.66,160114,,,A*6F
-0.00476,0.35714,-0.89154
0.01133,0.96698,0.25460,-0.15547,0.25323,-0.95483
$GPRMC,152537.000,A,3302.1012,S,06053.8111,W,1.40,261.24,160114,,,A*6A
-0.27799,0.62618,-0.44457
0.15272,0.87865,0.45239,-0.24257,0.47708,-0.84472
$GPRMC,152538.000,A,3302.1014,S,06053.8115,W,1.44,257.84,160114,,,A*6C
0.41687,-0.02320,-1.05938
-0.09292,0.98773,0.12555,-0.65562,0.03420,-0.75432
$GPRMC,152539.000,A,3302.1016,S,06053.8119,W,1.60,267.68,160114,,,A*64
0.26330,-0.17619,-0.86604
-0.11536,0.99236,0.04381,-0.76327,-0.06033,-0.64325
$GPRMC,152540.000,A,3302.1014,S,06053.8120,W,1.43,277.65,160114,,,A*6F
0.11001,0.17355,-1.00397
0.15143,0.98077,0.12315,-0.60664,0.19058,-0.77179
$GPRMC,152541.000,A,3302.1013,S,06053.8124,W,1.42,278.49,160114,,,A*6D
0.04813,0.62428,-1.07128
0.09964,0.98059,0.16889,-0.51425,0.19606,-0.83493
$GPRMC,152542.000,A,3302.1012,S,06053.8130,W,1.47,279.69,160114,,,A*6C
0.09932,0.25707,-0.91341
0.03010,0.98331,0.17944,-0.50945,0.16954,-0.84364
$GPRMC,152543.000,A,3302.1012,S,06053.8137,W,1.54,273.86,160114,,,A*63
0.26516,0.38278,-0.68692
0.12425,0.90325,0.41074,-0.40656,0.42395,-0.80931
$GPRMC,152544.000,A,3302.1012,S,06053.8146,W,1.88,275.88,160114,,,A*6B
0.87499,0.09804,-0.72130
0.09838,0.99078,0.09318,-0.30245,0.11897,-0.94571
$GPRMC,152545.000,A,3302.1012,S,06053.8153,W,2.09,278.16,160114,,,A*6E
-0.12170,-0.10238,-0.32313
0.01693,0.99617,0.08573,-0.62506,0.07746,-0.77672
$GPRMC,152546.000,A,3302.1010,S,06053.8160,W,2.08,278.19,160114,,,A*61
-0.14181,0.14783,-0.78244
0.13819,0.99041,-0.00109,-0.81801,0.11351,-0.56390
$GPRMC,152547.000,A,3302.1009,S,06053.8167,W,2.03,279.00,160114,,,A*6D
0.54467,0.16621,-1.24640
0.22803,0.93059,0.28635,-0.68813,0.36210,-0.62878
$GPRMC,152548.000,A,3302.1008,S,06053.8174,W,2.01,280.59,160114,,,A*69
0.05353,0.46254,-1.00404
0.05610,0.98635,0.15481,-0.63482,0.15492,-0.75697
$GPRMC,152549.000,A,3302.1006,S,06053.8178,W,1.83,283.81,160114,,,A*65
0.10462,0.33868,-0.99134
0.09381,0.97172,0.21671,-0.59539,0.22922,-0.77005
$GPRMC,152550.000,A,3302.1005,S,06053.8181,W,1.52,281.93,160114,,,A*65
0.24202,-0.18113,-0.41166
0.15991,0.95162,0.26239,-0.60922,0.30429,-0.73230
$GPRMC,152551.000,A,3302.1004,S,06053.8186,W,1.54,283.47,160114,,,A*6F
-0.78812,0.12862,-1.08017
0.40965,0.91083,0.05076,-0.62949,0.32252,-0.70691
$GPRMC,152552.000,A,3302.1000,S,06053.8193,W,1.93,285.14,160114,,,A*67
0.42656,0.33323,-0.87340
0.15523,0.96493,0.21168,-0.87682,0.23329,-0.42043
$GPRMC,152553.000,A,3302.0996,S,06053.8199,W,2.23,287.21,160114,,,A*67
0.10998,0.41733,-0.88714
0.16518,0.98508,0.04828,-0.89904,0.17052,-0.40330
$GPRMC,152554.000,A,3302.0991,S,06053.8205,W,2.23,289.25,160114,,,A*6B
-0.06854,0.32613,-1.20762
0.13856,0.96283,0.23188,-0.66534,0.26393,-0.69833
$GPRMC,152555.000,A,3302.0987,S,06053.8210,W,2.26,291.19,160114,,,A*6A
-0.08877,0.00649,-0.76925
0.14981,0.97592,-0.15854,-0.80132,0.02592,-0.59768
$GPRMC,152556.000,A,3302.0983,S,06053.8214,W,2.21,293.37,160114,,,A*60
-0.19661,-0.19217,-0.51014
0.15228,0.98544,-0.07569,-0.87992,0.10030,-0.46442
$GPRMC,152557.000,A,3302.0975,S,06053.8212,W,2.17,296.37,160114,,,A*6E
-0.01095,-0.04502,-0.72928
0.04610,0.99683,-0.06483,-0.95152,0.02406,-0.30664
$GPRMC,152558.000,A,3302.0965,S,06053.8205,W,2.21,300.67,160114,,,A*68
0.32248,-0.00662,-1.29610
-0.22984,0.96565,0.12125,-0.93654,-0.18556,-0.29744
$GPRMC,152559.000,A,3302.0953,S,06053.8207,W,2.88,305.06,160114,,,A*6F
0.82962,0.32297,-1.06811
0.06429,0.95159,0.30057,-0.88415,0.19398,-0.42502
$GPRMC,152600.000,A,3302.0946,S,06053.8208,W,2.84,309.59,160114,,,A*61
1.09753,0.49337,-1.00379
0.25704,0.95243,0.16374,-0.96640,0.25297,0.04560
$GPRMC,152601.000,A,3302.0938,S,06053.8207,W,2.68,314.21,160114,,,A*67
0.83015,0.44093,-0.77105
0.45178,0.80126,0.39227,-0.85610,0.51308,-0.06205
$GPRMC,152602.000,A,3302.0931,S,06053.8207,W,2.67,318.40,160114,,,A*69
-0.70209,0.17767,-1.18730
0.45921,0.88070,-0.11616,-0.50073,0.14861,-0.85275
$GPRMC,152603.000,A,3302.0923,S,06053.8208,W,2.68,322.16,160114,,,A*61
0.32884,0.07249,-1.06721
-0.12685,0.95111,0.28159,-0.43444,0.20194,-0.87777
$GPRMC,152604.000,A,3302.0917,S,06053.8201,W,2.51,325.76,160114,,,A*63
-0.39263,-0.40670,-0.96211
0.30283,0.94136,-0.14879,-0.12096,-0.11690,-0.98575
$GPRMC,152605.000,A,3302.0912,S,06053.8205,W,2.30,345.51,160114,,,A*67
-0.39175,0.19451,-0.75183
0.30957,0.91714,0.25102,0.19613,0.19672,-0.96064
$GPRMC,152606.000,A,3302.0908,S,06053.8206,W,1.88,346.09,160114,,,A*62
-0.56260,0.63704,-1.00861
-0.26977,0.73756,0.61905,0.21675,0.67290,-0.70726
$GPRMC,152607.000,A,3302.0905,S,06053.8205,W,1.42,347.16,160114,,,A*64
0.09070,0.10062,-0.52230
-0.41537,0.89313,0.17261,0.61333,0.41511,-0.67195
$GPRMC,152608.000,A,3302.0906,S,06053.8210,W,1.08,345.07,160114,,,A*60
0.01518,0.09346,-1.10333
-0.11242,0.98690,-0.11574,0.57094,0.15949,0.80535
$GPRMC,152609.000,A,3302.0903,S,06053.8211,W,0.41,345.07,160114,,,A*69
-0.21920,0.51209,-0.72895
0.44694,0.69298,-0.56571,-0.52492,0.71522,0.46142
$GPRMC,152610.000,A,3302.0901,S,06053.8212,W,0.37,345.07,160114,,,A*61
-0.53396,1.30473,-0.54509
0.67722,0.73552,-0.01980,-0.72485,0.66229,-0.18962
$GPRMC,152611.000,A,3302.0900,S,06053.8214,W,0.53,344.78,160114,,,A*6C
0.35219,0.95283,-0.16834
0.19953,0.60575,0.77023,-0.39212,0.76971,-0.50377
$GPRMC,152612.000,A,3302.0897,S,06053.8216,W,1.06,313.76,160114,,,A*6F
0.00354,-0.00464,-1.08530
-0.06507,0.99320,0.09650,-0.91504,-0.02081,-0.40283
$GPRMC,152613.000,A,3302.0896,S,06053.8219,W,1.11,316.03,160114,,,A*61
0.50095,0.20988,-1.01314
0.25160,0.95356,0.16560,-0.96298,0.22954,0.14132
$GPRMC,152614.000,A,3302.0892,S,06053.8220,W,1.14,343.45,160114,,,A*6F
0.71862,0.44401,-1.49284
0.40442,0.81748,0.41009,-0.89958,0.43642,0.01716
$GPRMC,152615.000,A,3302.0887,S,06053.8220,W,1.34,349.25,160114,,,A*64
-0.20309,-0.97905,0.03108
0.38696,0.67387,-0.62941,-0.69839,-0.23151,-0.67724
$GPRMC,152616.000,A,3302.0869,S,06053.8222,W,2.57,350.84,160114,,,A*60
0.04999,1.99257,-2.00686
-0.32921,0.89893,0.28904,-0.43220,0.12870,-0.89254
$GPRMC,152617.000,A,3302.0846,S,06053.8231,W,4.22,349.99,160114,,,A*6E
0.94578,-1.98531,-1.60726
-0.59444,0.78282,0.18393,-0.46602,-0.14896,-0.87215
$GPRMC,152618.000,A,3302.0835,S,06053.8239,W,4.89,347.07,160114,,,A*65
0.04807,-0.07976,-2.00647
0.01280,0.98521,-0.17090,-0.70257,-0.11275,-0.70262
$GPRMC,152619.000,A,3302.0827,S,06053.8253,W,4.49,342.68,160114,,,A*6B
0.01342,0.10061,-0.39180
0.11144,0.86820,0.48354,-0.41970,0.48216,-0.76901
$GPRMC,152620.000,A,3302.0824,S,06053.8261,W,1.63,274.17,160114,,,A*62
0.27244,0.67073,-0.46392
-0.22946,0.86128,0.45338,-0.17078,0.42295,-0.88991
$GPRMC,152621.000,A,3302.0826,S,06053.8265,W,1.67,267.87,160114,,,A*6A
0.54282,0.50410,-0.54175
-0.32672,0.79113,0.51708,-0.39450,0.38301,-0.83527
$GPRMC,152622.000,A,3302.0831,S,06053.8268,W,1.60,261.38,160114,,,A*67
0.44066,0.40316,-0.81741
-0.21892,0.88436,0.41228,-0.56645,0.22885,-0.79168
$GPRMC,152623.000,A,3302.0833,S,06053.8271,W,0.79,258.54,160114,,,A*65
0.09739,0.18179,-0.89440
0.03509,0.97890,0.20133,-0.74901,0.15913,-0.64316
$GPRMC,152624.000,A,3302.0835,S,06053.8279,W,1.54,257.36,160114,,,A*69
0.17318,0.36975,-1.00253
-0.08534,0.93216,0.35184,-0.25208,0.32144,-0.91276
$GPRMC,152625.000,A,3302.0836,S,06053.8285,W,1.59,255.52,160114,,,A*65
0.06629,0.33231,-0.66261
-0.05356,0.95653,0.28667,-0.07930,0.28210,-0.95610
$GPRMC,152626.000,A,3302.0839,S,06053.8290,W,1.57,252.78,160114,,,A*6C
0.23204,0.44206,-0.82818
-0.30993,0.89413,0.32323,0.10661,0.37051,-0.92269
$GPRMC,152627.000,A,3302.0842,S,06053.8295,W,1.36,235.47,160114,,,A*6E
0.37843,0.31284,-0.83396
-0.46261,0.88002,0.10745,0.42250,0.32539,-0.84594
$GPRMC,152628.000,A,3302.0843,S,06053.8297,W,1.11,229.87,160114,,,A*66
0.28700,0.41291,-0.82037
-0.51521,0.85416,0.07051,0.63171,0.43406,-0.64229
$GPRMC,152629.000,A,3302.0846,S,06053.8300,W,1.10,219.73,160114,,,A*64
0.53692,0.36527,-0.93718
-0.45002,0.88230,0.13793,0.35864,0.32001,-0.87691
$GPRMC,152630.000,A,3302.0845,S,06053.8302,W,0.88,220.79,160114,,,A*6D
0.46056,0.42115,-0.95328
-0.24629,0.87005,0.42704,-0.29279,0.35323,-0.88854
$GPRMC,152631.000,A,3302.0844,S,06053.8306,W,0.85,222.42,160114,,,A*6E
0.38511,0.74899,-0.93875
-0.18907,0.84501,0.50021,-0.28265,0.44101,-0.85183
$GPRMC,152632.000,A,3302.0844,S,06053.8307,W,0.68,240.05,160114,,,A*68
0.28942,0.37601,-0.90072
-0.13820,0.89559,0.42288,-0.51680,0.29902,-0.80218
$GPRMC,152633.000,A,3302.0843,S,06053.8305,W,0.27,240.05,160114,,,A*67
0.18927,0.42166,-0.76634
0.03242,0.86714,0.49702,-0.48801,0.44770,-0.74927
$GPRMC,152634.000,A,3302.0843,S,06053.8305,W,0.22,240.05,160114,,,A*65
0.52041,0.56143,-0.62699
0.03016,0.79726,0.60288,-0.72419,0.43315,-0.53658
$GPRMC,152635.000,A,3302.0842,S,06053.8305,W,0.21,240.05,160114,,,A*66
0.39151,0.54547,-0.83400
0.30939,0.85756,0.41093,-0.84306,0.44727,-0.29867
$GPRMC,152636.000,A,3302.0842,S,06053.8304,W,0.19,240.05,160114,,,A*6F
0.24424,0.29441,-0.79649
0.23786,0.92042,0.31024,-0.83684,0.35635,-0.41560
$GPRMC,152637.000,A,3302.0842,S,06053.8304,W,0.41,240.05,160114,,,A*63
0.38911,0.49835,-0.75412
0.31932,0.89674,0.30642,-0.90735,0.38261,-0.17417
$GPRMC,152638.000,A,3302.0841,S,06053.8303,W,0.35,240.05,160114,,,A*6B
0.26514,0.29539,-0.83545
0.12606,0.92998,0.34532,-0.76561,0.31256,-0.56227
$GPRMC,152639.000,A,3302.0840,S,06053.8302,W,0.25,240.05,160114,,,A*6B
0.30597,0.25703,-0.94891
-0.08856,0.93838,0.33408,-0.55612,0.23168,-0.79816
$GPRMC,152640.000,A,3302.0839,S,06053.8302,W,0.18,240.05,160114,,,A*65
0.15670,0.41584,-0.75319
0.00648,0.90113,0.43349,-0.48196,0.38264,-0.78823
$GPRMC,152641.000,A,3302.0839,S,06053.8301,W,0.27,240.05,160114,,,A*6B
0.28502,0.31679,-1.03853
-0.11685,0.95375,0.27696,-0.52871,0.17633,-0.83029
$GPRMC,152642.000,A,3302.0840,S,06053.8301,W,0.16,240.05,160114,,,A*64
0.42126,0.24871,-0.74238
-0.14406,0.91232,0.38331,-0.45878,0.28163,-0.84274
$GPRMC,152643.000,A,3302.0840,S,06053.8300,W,0.26,240.05,160114,,,A*67
0.24425,0.27984,-0.76142
-0.31930,0.90259,0.28874,0.02287,0.31194,-0.94983
$GPRMC,152644.000,A,3302.0840,S,06053.8300,W,0.28,240.05,160114,,,A*6E
0.29818,0.33522,-0.91873
-0.44056,0.86128,0.25321,0.22178,0.37773,-0.89896
$GPRMC,152645.000,A,3302.0841,S,06053.8299,W,0.47,240.05,160114,,,A*66
0.17173,0.40518,-0.91342
-0.29386,0.91218,0.28562,0.18407,0.34722,-0.91954
$GPRMC,152646.000,A,3302.0842,S,06053.8298,W,0.30,240.05,160114,,,A*67
0.31082,0.21964,-1.00685
-0.13156,0.92140,0.36567,-0.40829,0.28577,-0.86697
$GPRMC,152647.000,A,3302.0842,S,06053.8297,W,0.38,240.05,160114,,,A*61
0.59972,0.29917,-0.70923
-0.08658,0.85723,0.50760,-0.83788,0.21298,-0.50260
$GPRMC,152648.000,A,3302.0841,S,06053.8298,W,0.61,353.01,160114,,,A*69
0.37256,0.32938,-0.96838
0.36421,0.87670,0.31424,-0.86659,0.44262,-0.23046
$GPRMC,152649.000,A,3302.0841,S,06053.8298,W,0.41,353.01,160114,,,A*6A
0.47373,0.45898,-0.72195
0.45057,0.82212,0.34799,-0.87915,0.47636,0.01291
$GPRMC,152650.000,A,3302.0841,S,06053.8299,W,0.37,353.01,160114,,,A*62
0.46830,0.53043,-1.00200
0.36772,0.86765,0.33463,-0.90802,0.41267,-0.07219
$GPRMC,152651.000,A,3302.0841,S,06053.8300,W,0.33,353.01,160114,,,A*66
0.31231,0.26818,-0.85443
0.16207,0.92101,0.35422,-0.90178,0.28399,-0.32580
$GPRMC,152652.000,A,3302.0842,S,06053.8301,W,0.13,353.01,160114,,,A*65
0.21747,0.33425,-0.85738
0.02926,0.95444,0.29696,-0.62675,0.24895,-0.73838
$GPRMC,152653.000,A,3302.0842,S,06053.8301,W,0.30,353.01,160114,,,A*65
0.39109,0.28903,-0.79889
-0.26416,0.89582,0.35738,-0.48336,0.19769,-0.85281
$GPRMC,152654.000,A,3302.0842,S,06053.8300,W,0.30,353.01,160114,,,A*63
0.51158,0.39542,-1.11447
-0.28339,0.88478,0.36993,-0.44680,0.21951,-0.86729
$GPRMC,152655.000,A,3302.0843,S,06053.8300,W,0.29,353.01,160114,,,A*6B
0.36528,0.11184,-1.14416
-0.24147,0.95645,0.16402,-0.38402,0.06104,-0.92130
$GPRMC,152656.000,A,3302.0843,S,06053.8299,W,0.29,353.01,160114,,,A*69
0.33320,0.41969,-0.79893
-0.28653,0.88975,0.35531,-0.12222,0.33388,-0.93466
$GPRMC,152657.000,A,3302.0843,S,06053.8298,W,0.35,353.01,160114,,,A*64
0.18443,0.22208,-0.86857
-0.34023,0.92933,0.14349,0.31880,0.25755,-0.91216
$GPRMC,152658.000,A,3302.0843,S,06053.8297,W,0.27,353.01,160114,,,A*67
0.26223,0.23129,-0.87830
-0.26166,0.93737,0.22993,0.08694,0.26016,-0.96164
$GPRMC,152659.000,A,3302.0844,S,06053.8296,W,0.25,353.01,160114,,,A*62
0.37696,0.18806,-1.02485
-0.37989,0.90210,0.20469,-0.05277,0.19978,-0.97842
$GPRMC,152700.000,A,3302.0844,S,06053.8296,W,0.16,353.01,160114,,,A*6F
0.31718,0.23515,-0.83981
-0.29940,0.92351,0.23977,0.03105,0.26059,-0.96495
$GPRMC,152701.000,A,3302.0845,S,06053.8295,W,0.06,353.01,160114,,,A*6D
0.15183,0.32941,-0.85253
-0.35810,0.91998,0.15938,0.40299,0.30627,-0.86244
$GPRMC,152702.000,A,3302.0845,S,06053.8295,W,0.04,353.01,160114,,,A*6C
0.45620,0.19631,-1.10178
-0.41931,0.90507,0.07094,0.44319,0.27227,-0.85408
$GPRMC,152703.000,A,3302.0845,S,06053.8295,W,0.25,353.01,160114,,,A*6E
0.43626,0.37695,-0.92406
-0.50284,0.85956,0.09120,0.37408,0.31152,-0.87351
$GPRMC,152704.000,A,3302.0845,S,06053.8296,W,0.08,353.01,160114,,,A*65
0.26703,0.39837,-0.93969
-0.43534,0.88897,-0.14217,0.80119,0.31055,-0.51152
$GPRMC,152705.000,A,3302.0846,S,06053.8296,W,0.14,353.01,160114,,,A*6A
0.36577,0.20992,-1.01463
-0.43632,0.89935,-0.02825,0.53255,0.23281,-0.81375
$GPRMC,152706.000,A,3302.0846,S,06053.8295,W,0.14,353.01,160114,,,A*6A
0.30599,0.34199,-0.76191
-0.49798,0.85222,0.16046,0.39246,0.38648,-0.83463
$GPRMC,152707.000,A,3302.0846,S,06053.8295,W,0.22,353.01,160114,,,A*6E
0.46302,0.31915,-0.93329
-0.45132,0.87077,0.19512,0.13016,0.28055,-0.95097
$GPRMC,152708.000,A,3302.0847,S,06053.8296,W,0.36,353.01,160114,,,A*66
0.27578,0.43916,-0.93434
-0.44306,0.86324,0.24189,0.09199,0.31217,-0.94556
$GPRMC,152709.000,A,3302.0847,S,06053.8297,W,0.21,353.01,160114,,,A*60
0.32446,0.45513,-0.69520
-0.53331,0.84543,0.02878,0.59078,0.39659,-0.70263
$GPRMC,152710.000,A,3302.0848,S,06053.8297,W,0.33,353.01,160114,,,A*64
0.58801,0.19771,-0.95175
-0.24044,0.88864,-0.39053,0.95711,0.28404,0.05706
$GPRMC,152711.000,A,3302.0849,S,06053.8296,W,0.30,353.01,160114,,,A*66
0.42806,0.28465,-0.77307
-0.34657,0.88137,-0.32105,0.92785,0.27184,-0.25533
$GPRMC,152712.000,A,3302.0849,S,06053.8296,W,0.27,353.01,160114,,,A*63
0.47427,0.20693,-0.75600
-0.58987,0.80730,0.01787,0.41854,0.32459,-0.84821
$GPRMC,152713.000,A,3302.0850,S,06053.8295,W,0.25,353.01,160114,,,A*6B
0.30947,0.22442,-0.60312
-0.55462,0.83196,-0.01569,0.53316,0.34083,-0.77432
$GPRMC,152714.000,A,3302.0851,S,06053.8296,W,0.16,353.01,160114,,,A*6E
0.33521,0.37351,-0.58560
-0.51074,0.83468,-0.20606,0.84567,0.44457,-0.29529
$GPRMC,152715.000,A,3302.0851,S,06053.8296,W,0.26,353.01,160114,,,A*6C
0.49075,0.30796,-0.87095
-0.24908,0.87492,-0.41530,0.96108,0.27621,0.00546
$GPRMC,152716.000,A,3302.0852,S,06053.8296,W,0.18,353.01,160114,,,A*61
0.28845,0.22208,-1.02829
-0.35069,0.90239,-0.25043,0.93304,0.31372,-0.17612
$GPRMC,152717.000,A,3302.0852,S,06053.8296,W,0.13,353.01,160114,,,A*6B
0.32596,0.19192,-0.80278
-0.50266,0.85070,-0.15378,0.75499,0.34534,-0.55743
$GPRMC,152718.000,A,3302.0853,S,06053.8296,W,0.16,353.01,160114,,,A*60
0.34830,0.29148,-0.81449
-0.38259,0.89985,0.20950,0.29431,0.33364,-0.89558
$GPRMC,152719.000,A,3302.0853,S,06053.8296,W,0.34,353.01,160114,,,A*61
0.23648,0.25652,-0.75606
-0.42446,0.88531,0.18989,0.27346,0.32527,-0.90522
$GPRMC,152720.000,A,3302.0853,S,06053.8297,W,0.43,353.01,160114,,,A*6A
0.45869,0.09818,-0.95079
-0.46653,0.87260,0.14463,0.08527,0.20712,-0.97459
$GPRMC,152721.000,A,3302.0853,S,06053.8299,W,0.36,353.01,160114,,,A*67
0.51411,0.24968,-0.85924
-0.47549,0.85177,0.21998,-0.12487,0.18218,-0.97530
$GPRMC,152722.000,A,3302.0853,S,06053.8300,W,0.57,353.01,160114,,,A*62
0.61082,0.33758,-0.99755
-0.30517,0.90884,0.28440,-0.17572,0.23978,-0.95479
$GPRMC,152723.000,A,3302.0852,S,06053.8302,W,0.43,353.01,160114,,,A*65
0.41921,0.27792,-1.15489
-0.25139,0.91604,0.31254,-0.33824,0.21940,-0.91513
$GPRMC,152724.000,A,3302.0851,S,06053.8303,W,0.34,353.01,160114,,,A*60
0.44749,0.28709,-0.84076
-0.35813,0.87441,0.32735,-0.35920,0.19458,-0.91275
$GPRMC,152725.000,A,3302.0851,S,06053.8304,W,0.30,353.01,160114,,,A*62
0.16641,0.29057,-0.93142
-0.22246,0.93897,0.26237,-0.13750,0.23621,-0.96192
$GPRMC,152726.000,A,3302.0850,S,06053.8305,W,0.22,353.01,160114,,,A*62
0.42898,0.39054,-0.84906
-0.53621,0.84248,-0.05202,0.66437,0.38322,-0.64168
$GPRMC,152727.000,A,3302.0850,S,06053.8305,W,0.20,353.01,160114,,,A*61
0.38617,0.37891,-0.96206
-0.43309,0.88942,-0.14618,0.74917,0.26502,-0.60705
$GPRMC,152728.000,A,3302.0850,S,06053.8305,W,0.06,353.01,160114,,,A*6A
0.38530,0.31376,-0.58899
-0.51448,0.85170,-0.09960,0.72426,0.36941,-0.58222
$GPRMC,152729.000,A,3302.0850,S,06053.8305,W,0.07,353.01,160114,,,A*6A
0.46784,0.37503,-1.05457
-0.50533,0.85561,-0.11212,0.66908,0.30644,-0.67707
$GPRMC,152730.000,A,3302.0850,S,06053.8305,W,0.14,353.01,160114,,,A*60
0.57731,0.29338,-0.88553
-0.51473,0.84678,0.13425,0.20716,0.27478,-0.93893
$GPRMC,152731.000,A,3302.0850,S,06053.8305,W,0.21,353.01,160114,,,A*67
0.00351,0.38287,-0.84284
-0.36198,0.91673,0.16907,0.37974,0.31065,-0.87138
$GPRMC,152732.000,A,3302.0851,S,06053.8306,W,0.28,353.01,160114,,,A*6F
0.56089,0.16413,-0.55093
-0.54136,0.83975,0.04189,0.25159,0.20933,-0.94492
$GPRMC,152733.000,A,3302.0851,S,06053.8307,W,0.29,353.01,160114,,,A*6E
0.65123,0.33122,-0.79640
-0.57132,0.81268,0.11462,0.17184,0.25501,-0.95155
$GPRMC,152734.000,A,3302.0851,S,06053.8308,W,0.23,353.01,160114,,,A*6C
0.40663,0.27837,-0.90603
-0.38549,0.85786,0.33980,-0.20234,0.28070,-0.93822
$GPRMC,152735.000,A,3302.0851,S,06053.8309,W,0.26,353.01,160114,,,A*69
0.39592,0.21671,-0.99758
-0.25544,0.91940,0.29910,-0.24885,0.23641,-0.93925
$GPRMC,152736.000,A,3302.0851,S,06053.8309,W,0.10,353.01,160114,,,A*6F
0.38184,0.33518,-0.82276
-0.49990,0.85566,0.13396,0.36225,0.34707,-0.86506
$GPRMC,152737.000,A,3302.0851,S,06053.8310,W,0.04,353.01,160114,,,A*63
0.32444,0.34492,-0.88463
-0.34377,0.93363,-0.10076,0.91264,0.30691,-0.26997
$GPRMC,152738.000,A,3302.0851,S,06053.8310,W,0.15,353.01,160114,,,A*6C
0.33077,0.06133,-1.11591
-0.19851,0.94420,-0.26285,0.97474,0.16218,-0.15354
$GPRMC,152739.000,A,3302.0851,S,06053.8309,W,0.56,353.01,160114,,,A*62
0.57636,0.27782,-0.80907
0.24284,0.84657,-0.47365,0.51066,0.30357,0.80441
$GPRMC,152740.000,A,3302.0851,S,06053.8307,W,0.51,353.01,160114,,,A*65
0.29283,0.26432,-0.96109
0.40850,0.85652,-0.31544,-0.02550,0.35617,0.93407
$GPRMC,152741.000,A,3302.0851,S,06053.8306,W,0.39,353.01,160114,,,A*6B
0.41252,0.17587,-0.77646
0.44743,0.85750,-0.25396,-0.01945,0.29324,0.95584
$GPRMC,152742.000,A,3302.0851,S,06053.8304,W,0.47,353.01,160114,,,A*63
-0.15207,0.17264,-0.94803
0.04256,0.93657,-0.34790,-0.74147,0.26299,0.61730
$GPRMC,152743.000,A,3302.0850,S,06053.8303,W,0.50,353.01,160114,,,A*62
-0.08109,0.16826,-0.99428
0.05839,0.97055,-0.23371,-0.66217,0.21284,0.71849
$GPRMC,152744.000,A,3302.0849,S,06053.8302,W,0.33,353.01,160114,,,A*69
-0.08935,0.17165,-0.97772
0.05648,0.97111,-0.23187,-0.65350,0.21154,0.72676
$GPRMC,152745.000,A,3302.0849,S,06053.8301,W,0.30,353.01,160114,,,A*68
-0.01445,0.11190,-0.96649
0.03468,0.97243,-0.23062,-0.57294,0.20842,0.79266
$GPRMC,152746.000,A,3302.0848,S,06053.8300,W,0.20,353.01,160114,,,A*6A
-0.17150,0.23866,-0.81022
0.00097,0.96802,-0.25086,-0.48570,0.21974,0.84606
$GPRMC,152747.000,A,3302.0848,S,06053.8300,W,0.18,353.01,160114,,,A*60
0.61578,0.16416,-0.78809
0.39852,0.78096,-0.48092,0.58120,0.19059,0.79113
$GPRMC,152748.000,A,3302.0848,S,06053.8299,W,0.19,353.01,160114,,,A*6F
0.37645,0.37162,-0.92651
-0.05307,0.87275,-0.48528,0.75253,0.35440,0.55506
$GPRMC,152749.000,A,3302.0848,S,06053.8299,W,0.20,353.01,160114,,,A*64
0.56805,0.30213,-0.95956
-0.22334,0.82950,-0.51191,0.94750,0.30804,0.08576
$GPRMC,152750.000,A,3302.0848,S,06053.8299,W,0.34,353.01,160114,,,A*69
0.44213,0.24096,-0.90260
-0.55183,0.82923,-0.08866,0.50917,0.25081,-0.82331
$GPRMC,152751.000,A,3302.0849,S,06053.8299,W,0.50,353.01,160114,,,A*6B
0.71202,0.12629,-0.95755
-0.49755,0.83437,-0.23724,0.69364,0.21846,-0.68639
$GPRMC,152752.000,A,3302.0850,S,06053.8300,W,0.41,353.01,160114,,,A*61
0.24626,0.32737,-0.45607
-0.55684,0.82373,-0.10678,0.70145,0.39750,-0.59157
$GPRMC,152753.000,A,3302.0851,S,06053.8301,W,0.36,353.01,160114,,,A*60
0.42513,0.16424,-0.93717
-0.27818,0.91237,-0.30033,0.96052,0.26289,-0.09105
$GPRMC,152754.000,A,3302.0852,S,06053.8301,W,0.38,353.01,160114,,,A*6A
0.37994,0.19433,-0.77745
-0.38968,0.89434,-0.21980,0.84220,0.24949,-0.47797
$GPRMC,152755.000,A,3302.0853,S,06053.8301,W,0.35,353.01,160114,,,A*67
0.61863,0.32542,-0.87628
-0.52721,0.84917,-0.03101,0.48629,0.27159,-0.83052
$GPRMC,152756.000,A,3302.0854,S,06053.8302,W,0.33,353.01,160114,,,A*66
0.50542,0.10347,-0.74671
-0.62362,0.77747,0.08150,0.03417,0.13126,-0.99076
$GPRMC,152757.000,A,3302.0855,S,06053.8302,W,0.31,353.01,160114,,,A*64
0.54569,0.41284,-0.79206
-0.49837,0.83610,0.22925,0.03449,0.28334,-0.95840
$GPRMC,152758.000,A,3302.0856,S,06053.8303,W,0.25,353.01,160114,,,A*6C
0.68665,0.44587,-0.99852
-0.57459,0.80155,0.16543,0.18490,0.32403,-0.92780
$GPRMC,152759.000,A,3302.0856,S,06053.8304,W,0.23,353.01,160114,,,A*6C
0.29238,0.29343,-0.81060
-0.46050,0.88456,0.07409,0.48819,0.32210,-0.81112
$GPRMC,152800.000,A,3302.0857,S,06053.8303,W,0.16,353.01,160114,,,A*6F
0.30549,0.18176,-0.98298
-0.39272,0.91948,0.01798,0.30478,0.14857,-0.94076
$GPRMC,152801.000,A,3302.0857,S,06053.8303,W,0.10,353.01,160114,,,A*68
0.57883,0.22049,-0.69315
-0.46754,0.83330,0.29497,-0.16896,0.24329,-0.95512
$GPRMC,152802.000,A,3302.0857,S,06053.8304,W,0.25,353.01,160114,,,A*6A
0.76116,0.15830,-0.81630
-0.43653,0.83222,0.34183,-0.49508,0.09505,-0.86363
$GPRMC,152803.000,A,3302.0857,S,06053.8305,W,0.38,353.01,160114,,,A*66
0.53848,0.31324,-0.58165
-0.25018,0.80287,0.54111,-0.57851,0.32419,-0.74849
$GPRMC,152804.000,A,3302.0856,S,06053.8305,W,0.42,353.01,160114,,,A*6D
0.59929,0.01069,-0.74862
-0.40002,0.83849,0.37003,-0.70539,-0.02390,-0.70841
$GPRMC,152805.000,A,3302.0856,S,06053.8306,W,0.40,353.01,160114,,,A*6D
0.52341,0.17097,-0.69753
-0.25890,0.89977,0.35126,-0.68734,0.08387,-0.72147
$GPRMC,152806.000,A,3302.0855,S,06053.8308,W,0.32,353.01,160114,,,A*66
0.39061,0.39100,-0.66352
-0.57666,0.77725,0.25168,-0.05261,0.27209,-0.96083
$GPRMC,152807.000,A,3302.0855,S,06053.8309,W,0.18,353.01,160114,,,A*6E
0.42019,0.34687,-1.06334
-0.49234,0.85079,-0.18374,0.52061,0.11867,-0.84551
$GPRMC,152808.000,A,3302.0856,S,06053.8309,W,0.23,353.01,160114,,,A*6A
0.39203,0.18661,-1.04822
-0.35609,0.91479,-0.19067,0.85812,0.23936,-0.45424
$GPRMC,152809.000,A,3302.0856,S,06053.8308,W,0.27,353.01,160114,,,A*6E
0.44749,0.14384,-0.96297
-0.26353,0.88168,-0.39140,0.96184,0.20918,-0.17640
$GPRMC,152810.000,A,3302.0857,S,06053.8307,W,0.33,353.01,160114,,,A*6D
0.33952,0.37647,-0.80817
-0.19922,0.87541,-0.44042,0.93415,0.30544,0.18457
$GPRMC,152811.000,A,3302.0857,S,06053.8307,W,0.38,353.01,160114,,,A*67
0.45870,0.25501,-0.76331
-0.02573,0.88552,-0.46388,0.84981,0.26376,0.45635
$GPRMC,152812.000,A,3302.0858,S,06053.8305,W,0.49,353.01,160114,,,A*6F
0.65175,0.28459,-0.72382
0.35290,0.84168,-0.40870,0.50413,0.19694,0.84087
$GPRMC,152813.000,A,3302.0858,S,06053.8304,W,0.67,121.20,160114,,,A*67
0.55641,0.24287,-0.87287
0.48994,0.83811,-0.23985,-0.02800,0.29012,0.95658
$GPRMC,152814.000,A,3302.0861,S,06053.8301,W,0.71,125.05,160114,,,A*6B
0.41786,0.19918,-0.79156
0.46767,0.85843,-0.21067,0.03236,0.22155,0.97461
$GPRMC,152815.000,A,3302.0859,S,06053.8300,W,0.55,125.05,160114,,,A*66
0.57835,0.19621,-0.71506
0.59089,0.78765,-0.17453,-0.08859,0.27837,0.95638
$GPRMC,152816.000,A,3302.0858,S,06053.8299,W,0.49,125.05,160114,,,A*68
0.47764,0.31379,-0.81738
0.53855,0.79916,-0.26703,-0.03574,0.33830,0.94036
$GPRMC,152817.000,A,3302.0857,S,06053.8298,W,0.43,125.05,160114,,,A*6D
0.59827,0.17873,-0.77934
0.49379,0.76034,-0.42197,0.35439,0.26717,0.89612
$GPRMC,152818.000,A,3302.0858,S,06053.8297,W,0.42,125.05,160114,,,A*63
0.44265,0.18509,-0.82369
0.07254,0.91257,-0.40243,0.83802,0.16301,0.52072
$GPRMC,152819.000,A,3302.0858,S,06053.8296,W,0.26,125.05,160114,,,A*61
0.57630,0.40217,-0.93231
-0.24244,0.81483,-0.52657,0.94502,0.32113,0.06183
$GPRMC,152820.000,A,3302.0859,S,06053.8295,W,0.37,125.05,160114,,,A*69
0.35652,0.29733,-0.97228
-0.32496,0.89809,-0.29638,0.92992,0.24637,-0.27305
$GPRMC,152821.000,A,3302.0860,S,06053.8296,W,0.28,125.05,160114,,,A*6F
0.72415,0.40066,-0.81928
-0.59134,0.80321,-0.07192,0.60561,0.38343,-0.69730
$GPRMC,152822.000,A,3302.0861,S,06053.8296,W,0.19,125.05,160114,,,A*6F
0.59777,0.48271,-0.52225
-0.72798,0.68364,-0.05174,0.50548,0.48421,-0.71417
$GPRMC,152823.000,A,3302.0861,S,06053.8297,W,0.25,125.05,160114,,,A*60
0.51993,0.35845,-0.79887
-0.55188,0.83067,-0.07363,0.59100,0.32729,-0.73729
$GPRMC,152824.000,A,3302.0861,S,06053.8298,W,0.17,125.05,160114,,,A*69
0.34734,0.28904,-0.76237
-0.47608,0.87438,0.09381,0.34617,0.28440,-0.89403
$GPRMC,152825.000,A,3302.0862,S,06053.8298,W,0.25,125.05,160114,,,A*6A
0.38084,0.45076,-0.80720
-0.46594,0.84403,0.26553,0.21215,0.39791,-0.89256
$GPRMC,152826.000,A,3302.0862,S,06053.8299,W,0.26,125.05,160114,,,A*6B
0.32692,0.23126,-0.80912
-0.51119,0.85764,0.05602,0.18969,0.17615,-0.96591
$GPRMC,152827.000,A,3302.0863,S,06053.8299,W,0.31,125.05,160114,,,A*6D
0.23553,0.10986,-0.80279
-0.46386,0.87462,0.14095,0.00057,0.15940,-0.98721
$GPRMC,152828.000,A,3302.0863,S,06053.8300,W,0.31,125.05,160114,,,A*63
0.38626,0.11372,-0.86168
-0.40624,0.89721,0.17315,0.05230,0.21202,-0.97587
$GPRMC,152829.000,A,3302.0864,S,06053.8301,W,0.16,125.05,160114,,,A*61
0.68380,0.35599,-0.81734
-0.52255,0.83405,0.17693,-0.10802,0.14108,-0.98409
$GPRMC,152830.000,A,3302.0863,S,06053.8301,W,0.14,125.05,160114,,,A*6C
0.50777,0.27446,-0.91574
-0.43766,0.81496,0.37985,-0.43070,0.18082,-0.88419
$GPRMC,152831.000,A,3302.0863,S,06053.8302,W,0.43,125.05,160114,,,A*6C
0.43633,0.31669,-0.72047
-0.29437,0.86702,0.40202,-0.61116,0.15262,-0.77665
$GPRMC,152832.000,A,3302.0862,S,06053.8302,W,0.69,323.87,160114,,,A*68
0.45722,0.34583,-0.75018
-0.06008,0.89300,0.44603,-0.81242,0.21587,-0.54164
$GPRMC,152833.000,A,3302.0863,S,06053.8306,W,0.51,323.87,160114,,,A*67
0.24526,0.09578,-0.80571
-0.07311,0.95165,0.29835,-0.83347,0.10598,-0.54230
$GPRMC,152834.000,A,3302.0862,S,06053.8307,W,0.49,323.87,160114,,,A*69
0.38628,0.18363,-0.70780
0.13431,0.94405,0.30122,-0.92042,0.23147,-0.31505
$GPRMC,152835.000,A,3302.0861,S,06053.8308,W,0.45,323.87,160114,,,A*68
0.38088,0.26427,-0.82275
0.08667,0.92721,0.36437,-0.92263,0.21269,-0.32176
$GPRMC,152836.000,A,3302.0863,S,06053.8311,W,0.43,323.87,160114,,,A*67
0.66050,0.07967,-0.91956
-0.18860,0.92113,0.34050,-0.79864,0.05790,-0.59901
$GPRMC,152837.000,A,3302.0864,S,06053.8313,W,0.34,323.87,160114,,,A*63
0.41397,0.12537,-0.85437
-0.30198,0.91140,0.27957,-0.58350,0.05520,-0.81023
$GPRMC,152838.000,A,3302.0864,S,06053.8313,W,0.37,323.87,160114,,,A*6F
0.40077,0.33228,-0.93331
-0.20897,0.91471,0.34589,-0.46825,0.21693,-0.85655
$GPRMC,152839.000,A,3302.0865,S,06053.8314,W,0.42,323.87,160114,,,A*6A
0.29042,0.18613,-0.98201
-0.21114,0.94911,0.23371,-0.46307,0.11344,-0.87903
$GPRMC,152840.000,A,3302.0866,S,06053.8314,W,0.36,323.87,160114,,,A*64
0.55551,0.26904,-0.58553
-0.31050,0.85270,0.42012,-0.60395,0.16433,-0.77990
$GPRMC,152841.000,A,3302.0867,S,06053.8316,W,0.30,323.87,160114,,,A*60
0.75816,0.27151,-1.03549
-0.46691,0.85745,0.21626,-0.11014,0.18626,-0.97631
$GPRMC,152842.000,A,3302.0867,S,06053.8316,W,0.09,323.87,160114,,,A*69
0.51571,0.16411,-0.38438
-0.50770,0.76449,0.39725,-0.31665,0.26324,-0.91128
$GPRMC,152843.000,A,3302.0867,S,06053.8317,W,0.20,323.87,160114,,,A*62
0.50538,0.24287,-0.79203
-0.40374,0.88460,0.23338,-0.13379,0.19527,-0.97158
$GPRMC,152844.000,A,3302.0868,S,06053.8316,W,0.20,323.87,160114,,,A*6B
0.27146,0.29490,-0.83983
-0.45323,0.86763,0.20444,-0.08153,0.18804,-0.97877
$GPRMC,152845.000,A,3302.0868,S,06053.8316,W,0.16,323.87,160114,,,A*6F
0.46402,0.34681,-0.79401
-0.55477,0.83200,0.00108,0.39145,0.26216,-0.88207
$GPRMC,152846.000,A,3302.0869,S,06053.8316,W,0.36,323.87,160114,,,A*6F
0.47034,0.21570,-0.90356
-0.33491,0.90253,-0.27070,0.86874,0.18451,-0.45962
$GPRMC,152847.000,A,3302.0869,S,06053.8315,W,0.47,323.87,160114,,,A*6B
0.54570,0.15791,-1.00094
-0.07333,0.86584,-0.49491,0.97500,0.16661,0.14701
$GPRMC,152848.000,A,3302.0870,S,06053.8313,W,0.39,323.87,160114,,,A*63
0.27242,0.51196,-0.66649
-0.42745,0.84928,-0.30984,0.87288,0.47693,0.10308
$GPRMC,152849.000,A,3302.0870,S,06053.8312,W,0.24,323.87,160114,,,A*6F
0.43630,0.04188,-1.09737
-0.35762,0.92369,-0.13751,0.72216,0.18017,-0.66785
$GPRMC,152850.000,A,3302.0870,S,06053.8312,W,0.25,323.87,160114,,,A*66
0.67022,0.19718,-0.81536
-0.56647,0.82262,-0.04914,0.43051,0.24455,-0.86883
$GPRMC,152851.000,A,3302.0871,S,06053.8312,W,0.23,323.87,160114,,,A*60
0.33999,0.39736,-0.86467
-0.46316,0.84412,-0.27008,0.87348,0.38318,-0.30034
$GPRMC,152852.000,A,3302.0871,S,06053.8312,W,0.30,323.87,160114,,,A*61
0.57637,0.26227,-0.78082
-0.31862,0.86955,-0.37731,0.91859,0.18507,-0.34919
$GPRMC,152853.000,A,3302.0872,S,06053.8312,W,0.46,323.87,160114,,,A*62
0.50775,0.27690,-0.97857
-0.55761,0.78507,-0.26970,0.73859,0.32093,-0.59286
$GPRMC,152854.000,A,3302.0874,S,06053.8312,W,0.57,323.87,160114,,,A*63
0.37793,0.37113,-0.85638
-0.53995,0.84132,0.02514,0.43447,0.30417,-0.84777
$GPRMC,152855.000,A,3302.0875,S,06053.8313,W,0.46,323.87,160114,,,A*62
0.51462,0.23218,-0.77011
-0.58761,0.80538,0.07800,0.24820,0.27115,-0.92999
$GPRMC,152856.000,A,3302.0876,S,06053.8314,W,0.52,323.87,160114,,,A*60
0.61911,0.50218,-0.76186
-0.50229,0.76095,0.41068,-0.37376,0.23723,-0.89668
$GPRMC,152857.000,A,3302.0877,S,06053.8315,W,0.43,323.87,160114,,,A*61
0.30597,0.21672,-0.96741
-0.25312,0.93634,0.24332,-0.37769,0.13591,-0.91591
$GPRMC,152858.000,A,3302.0878,S,06053.8316,W,0.39,323.87,160114,,,A*6F
0.55830,0.45268,-0.91674
-0.30742,0.85516,0.41736,-0.54314,0.20244,-0.81487
$GPRMC,152859.000,A,3302.0878,S,06053.8318,W,0.37,323.87,160114,,,A*6E
0.49470,0.19430,-0.75647
-0.25217,0.86123,0.44123,-0.68551,0.16284,-0.70962
$GPRMC,152900.000,A,3302.0877,S,06053.8319,W,0.26,323.87,160114,,,A*6D
0.30405,0.11376,-0.96057
-0.17544,0.95085,0.25517,-0.60106,0.10183,-0.79269
$GPRMC,152901.000,A,3302.0877,S,06053.8320,W,0.13,323.87,160114,,,A*60
0.45531,0.20693,-0.74723
-0.38414,0.88270,0.27069,-0.15948,0.22534,-0.96114
$GPRMC,152902.000,A,3302.0877,S,06053.8320,W,0.09,323.87,160114,,,A*68
0.62740,0.27151,-0.86896
-0.59369,0.80170,-0.06937,0.49185,0.29331,-0.81979
$GPRMC,152903.000,A,3302.0877,S,06053.8319,W,0.28,323.87,160114,,,A*60
0.34290,0.22644,-1.05117
0.08486,0.91637,-0.39123,0.82598,0.15490,0.54200
$GPRMC,152904.000,A,3302.0877,S,06053.8319,W,0.54,323.87,160114,,,A*6C
0.52043,0.14965,-0.94591
-0.11599,0.88068,-0.45929,0.98231,0.17015,0.07818
$GPRMC,152905.000,A,3302.0878,S,06053.8317,W,0.58,323.87,160114,,,A*60
0.32304,0.13656,-0.84709
-0.24310,0.94635,-0.21287,0.92716,0.16220,-0.33773
$GPRMC,152906.000,A,3302.0878,S,06053.8315,W,0.27,323.87,160114,,,A*69
0.47960,0.26716,-0.79691
-0.29760,0.86774,-0.39808,0.95204,0.23865,-0.19151
